{"speciesCode": "ferhaw", "comName": "Ferruginous Hawk", "sciName": "Buteo regalis", "locId": "L3485424", "locName": "49.3892x-111.1045 - Mar 13, 2015, 3:00 PM", "obsDt": "2015-03-13 15:00", "howMany": 1, "lat": 49.389205, "lng": -111.104458, "obsValid": true, "obsReviewed": true, "locationPrivate": true, "subId": "S22332749"}
{"speciesCode": "ferhaw", "comName": "Ferruginous Hawk", "sciName": "Buteo regalis", "locId": "L2815023", "locName": "Chappice Lake", "obsDt": "2015-03-14 08:15", "howMany": 1, "lat": 50.1621386, "lng": -110.3527034, "obsValid": true, "obsReviewed": true, "locationPrivate": true, "subId": "S22342116"}
{"speciesCode": "ferhaw", "comName": "Ferruginous Hawk", "sciName": "Buteo regalis", "locId": "L1313593", "locName": "Clear Lake", "obsDt": "2015-03-22 15:06", "howMany": 1, "lat": 50.1346643, "lng": -113.4118652, "obsValid": true, "obsReviewed": false, "locationPrivate": true, "subId": "S22472592"}
{"speciesCode": "ferhaw", "comName": "Ferruginous Hawk", "sciName": "Buteo regalis", "locId": "L3516091", "locName": "50.1534x-110.3660 - Mar 26, 2015, 11:49 AM", "obsDt": "2015-03-26 11:49", "howMany": 2, "lat": 50.153431, "lng": -110.366036, "obsValid": true, "obsReviewed": false, "locationPrivate": true, "subId": "S22528480"}
{"speciesCode": "ferhaw", "comName": "Ferruginous Hawk", "sciName": "Buteo regalis", "locId": "L3519088", "locName": "Redcliff, Trans-Canada Highway", "obsDt": "2015-03-27 19:34", "howMany": 2, "lat": 50.12381, "lng": -110.87679, "obsValid": true, "obsReviewed": false, "locationPrivate": true, "subId": "S22548893"}
{"speciesCode": "ferhaw", "comName": "Ferruginous Hawk", "sciName": "Buteo regalis", "locId": "L3520582", "locName": "49.2027 X -110.9113", "obsDt": "2015-03-28 13:11", "howMany": 1, "lat": 49.20273, "lng": -110.91131, "obsValid": true, "obsReviewed": false, "locationPrivate": true, "subId": "S22558356"}
{"speciesCode": "ferhaw", "comName": "Ferruginous Hawk", "sciName": "Buteo regalis", "locId": "L3526866", "locName": "49.0306, -113.0147", "obsDt": "2015-03-29 15:55", "howMany": 1, "lat": 49.0277248, "lng": -113.0005378, "obsValid": true, "obsReviewed": false, "locationPrivate": true, "subId": "S22584343"}
{"speciesCode": "ferhaw", "comName": "Ferruginous Hawk", "sciName": "Buteo regalis", "locId": "L3527387", "locName": "Dowling Lake", "obsDt": "2015-03-30", "howMany": 1, "lat": 51.7664588, "lng": -112.0728207, "obsValid": true, "obsReviewed": false, "locationPrivate": true, "subId": "S22606223"}
{"speciesCode": "ferhaw", "comName": "Ferruginous Hawk", "sciName": "Buteo regalis", "locId": "L1290826", "locName": "Many Islands Lake", "obsDt": "2015-04-02 11:00", "howMany": 1, "lat": 50.1663432, "lng": -110.0473022, "obsValid": true, "obsReviewed": false, "locationPrivate": true, "subId": "S22656093"}
{"speciesCode": "ferhaw", "comName": "Ferruginous Hawk", "sciName": "Buteo regalis", "locId": "L3535730", "locName": "Cessford", "obsDt": "2015-04-03 17:24", "howMany": 2, "lat": 51.0081384, "lng": -111.5630078, "obsValid": true, "obsReviewed": false, "locationPrivate": true, "subId": "S22667129"}
{"speciesCode": "ferhaw", "comName": "Ferruginous Hawk", "sciName": "Buteo regalis", "locId": "L2172804", "locName": "AB OneFour", "obsDt": "2015-04-04 14:42", "howMany": 3, "lat": 49.02231, "lng": -110.25152, "obsValid": true, "obsReviewed": false, "locationPrivate": true, "subId": "S22815962"}
{"speciesCode": "ferhaw", "comName": "Ferruginous Hawk", "sciName": "Buteo regalis", "locId": "L2779197", "locName": "CA-AB-Hanna-Louise Lakes", "obsDt": "2015-04-05 17:00", "howMany": 2, "lat": 51.6481882, "lng": -111.9622815, "obsValid": true, "obsReviewed": false, "locationPrivate": true, "subId": "S22708001"}
{"speciesCode": "ferhaw", "comName": "Ferruginous Hawk", "sciName": "Buteo regalis", "locId": "L3547531", "locName": "Warner Area", "obsDt": "2015-04-07 11:00", "lat": 49.28298, "lng": -112.2074461, "obsValid": true, "obsReviewed": false, "locationPrivate": true, "subId": "S22748428", "howMany": 1, "noCount": 1}
{"speciesCode": "ferhaw", "comName": "Ferruginous Hawk", "sciName": "Buteo regalis", "locId": "L3549051", "locName": "CA-AB-Tilley - 50.3997x-111.5426 - Apr 8, 2015, 3:55 PM", "obsDt": "2015-04-08 15:55", "howMany": 1, "lat": 50.399668, "lng": -111.542576, "obsValid": true, "obsReviewed": false, "locationPrivate": true, "subId": "S22758611"}
{"speciesCode": "ferhaw", "comName": "Ferruginous Hawk", "sciName": "Buteo regalis", "locId": "L3551683", "locName": "51.6459x-111.6114 - Apr 9, 2015, 6:52 PM", "obsDt": "2015-04-09 18:54", "howMany": 2, "lat": 51.645889, "lng": -111.611404, "obsValid": true, "obsReviewed": false, "locationPrivate": true, "subId": "S22776693"}
{"speciesCode": "ferhaw", "comName": "Ferruginous Hawk", "sciName": "Buteo regalis", "locId": "L3552520", "locName": "Nanton", "obsDt": "2015-04-10 08:07", "howMany": 1, "lat": 50.250918, "lng": -113.799489, "obsValid": true, "obsReviewed": false, "locationPrivate": true, "subId": "S22782424"}
{"speciesCode": "ferhaw", "comName": "Ferruginous Hawk", "sciName": "Buteo regalis", "locId": "L2174012", "locName": "Cavan Lake", "obsDt": "2015-04-11 15:00", "howMany": 1, "lat": 49.9353119, "lng": -110.412941, "obsValid": true, "obsReviewed": false, "locationPrivate": true, "subId": "S22829900"}
{"speciesCode": "ferhaw", "comName": "Ferruginous Hawk", "sciName": "Buteo regalis", "locId": "L3559397", "locName": "Range Road 14A", "obsDt": "2015-04-12 14:30", "howMany": 1, "lat": 50.20848, "lng": -110.11824, "obsValid": true, "obsReviewed": false, "locationPrivate": true, "subId": "S22829616"}
{"speciesCode": "ferhaw", "comName": "Ferruginous Hawk", "sciName": "Buteo regalis", "locId": "L2804165", "locName": "CA-AB-Hanna-113 Palliser Trail", "obsDt": "2015-04-13 11:06", "howMany": 1, "lat": 51.633367, "lng": -111.942198, "obsValid": true, "obsReviewed": false, "locationPrivate": true, "subId": "S22842410"}
{"speciesCode": "ferhaw", "comName": "Ferruginous Hawk", "sciName": "Buteo regalis", "locId": "L339530", "locName": "Pakowki Lake (general)", "obsDt": "2015-04-17 11:00", "howMany": 8, "lat": 49.3550975, "lng": -110.9668922, "obsValid": true, "obsReviewed": false, "locationPrivate": false, "subId": "S22919885"}
{"speciesCode": "ferhaw", "comName": "Ferruginous Hawk", "sciName": "Buteo regalis", "locId": "L760014", "locName": "Clear Lake", "obsDt": "2015-04-19 15:50", "howMany": 2, "lat": 50.1371524, "lng": -113.4088191, "obsValid": true, "obsReviewed": false, "locationPrivate": false, "subId": "S22962078"}
{"speciesCode": "ferhaw", "comName": "Ferruginous Hawk", "sciName": "Buteo regalis", "locId": "L3583119", "locName": "South of Nanton", "obsDt": "2015-04-21 09:00", "howMany": 2, "lat": 50.2737015, "lng": -113.7820959, "obsValid": true, "obsReviewed": false, "locationPrivate": true, "subId": "S23002899"}
{"speciesCode": "ferhaw", "comName": "Ferruginous Hawk", "sciName": "Buteo regalis", "locId": "L3585982", "locName": "CA-AB-Hanna - 51.6198x-111.9484 - Apr 23, 2015, 4:52 PM", "obsDt": "2015-04-23 16:52", "howMany": 1, "lat": 51.5908488, "lng": -111.9275522, "obsValid": true, "obsReviewed": false, "locationPrivate": true, "subId": "S23023623"}
{"speciesCode": "ferhaw", "comName": "Ferruginous Hawk", "sciName": "Buteo regalis", "locId": "L1558331", "locName": "Medicine Wheel Ducks Unlimited Project", "obsDt": "2015-04-24 16:15", "howMany": 1, "lat": 50.4900408, "lng": -112.4053767, "obsValid": true, "obsReviewed": false, "locationPrivate": true, "subId": "S23038986"}
{"speciesCode": "ferhaw", "comName": "Ferruginous Hawk", "sciName": "Buteo regalis", "locId": "L679073", "locName": "Eagle Butte Road", "obsDt": "2015-04-28 06:30", "howMany": 1, "lat": 49.5964701, "lng": -110.5993652, "obsValid": true, "obsReviewed": false, "locationPrivate": true, "subId": "S23129308"}
{"speciesCode": "ferhaw", "comName": "Ferruginous Hawk", "sciName": "Buteo regalis", "locId": "L3608065", "locName": "CA-AB-Hanna - 51.4632x-111.8776 - May 2, 2015, 6:00 PM", "obsDt": "2015-04-30 16:00", "howMany": 1, "lat": 51.463208, "lng": -111.877551, "obsValid": true, "obsReviewed": false, "locationPrivate": true, "subId": "S23186827"}
{"speciesCode": "ferhaw", "comName": "Ferruginous Hawk", "sciName": "Buteo regalis", "locId": "L3610147", "locName": "CA-AB-Patricia - 50.5437x-111.6998 - May 3, 2015, 1:38 PM", "obsDt": "2015-05-01 11:38", "howMany": 1, "lat": 50.543729, "lng": -111.699822, "obsValid": true, "obsReviewed": false, "locationPrivate": true, "subId": "S23202624"}
{"speciesCode": "ferhaw", "comName": "Ferruginous Hawk", "sciName": "Buteo regalis", "locId": "L736647", "locName": "Old TransCanada Hwy--Tilley to Suffield", "obsDt": "2015-05-02 07:09", "howMany": 2, "lat": 50.4058918, "lng": -111.5606689, "obsValid": true, "obsReviewed": false, "locationPrivate": true, "subId": "S23175975"}
{"speciesCode": "ferhaw", "comName": "Ferruginous Hawk", "sciName": "Buteo regalis", "locId": "L3619298", "locName": "Waldron Flat to 22 via T8.4", "obsDt": "2015-05-04 15:00", "howMany": 1, "lat": 49.6697036, "lng": -114.1189384, "obsValid": true, "obsReviewed": false, "locationPrivate": true, "subId": "S23283208"}
{"speciesCode": "ferhaw", "comName": "Ferruginous Hawk", "sciName": "Buteo regalis", "locId": "L728322", "locName": "Frank Lake *please use more specific hotspot*", "obsDt": "2015-05-05 08:00", "howMany": 1, "lat": 50.5448539, "lng": -113.7139893, "obsValid": true, "obsReviewed": true, "locationPrivate": false, "subId": "S23272476"}
{"speciesCode": "ferhaw", "comName": "Ferruginous Hawk", "sciName": "Buteo regalis", "locId": "L1522920", "locName": "Badger Lake Community Park", "obsDt": "2015-05-06 16:20", "howMany": 1, "lat": 50.3844199, "lng": -112.4761557, "obsValid": true, "obsReviewed": false, "locationPrivate": true, "subId": "S23277074"}
{"speciesCode": "ferhaw", "comName": "Ferruginous Hawk", "sciName": "Buteo regalis", "locId": "L3655130", "locName": "Bassano", "obsDt": "2015-05-07", "howMany": 2, "lat": 50.59626, "lng": -112.370224, "obsValid": true, "obsReviewed": false, "locationPrivate": true, "subId": "S23520952"}
{"speciesCode": "ferhaw", "comName": "Ferruginous Hawk", "sciName": "Buteo regalis", "locId": "L3552616", "locName": "Range Rd 33A, Chappice Lake", "obsDt": "2015-05-08 18:45", "howMany": 1, "lat": 50.1644647, "lng": -110.3489192, "obsValid": true, "obsReviewed": false, "locationPrivate": true, "subId": "S23316078"}
{"speciesCode": "ferhaw", "comName": "Ferruginous Hawk", "sciName": "Buteo regalis", "locId": "L3056431", "locName": "Purple Springs, Range Road 143", "obsDt": "2015-05-09 16:20", "howMany": 1, "lat": 49.844, "lng": -111.84486, "obsValid": true, "obsReviewed": false, "locationPrivate": true, "subId": "S23343919"}
{"speciesCode": "ferhaw", "comName": "Ferruginous Hawk", "sciName": "Buteo regalis", "locId": "L3655130", "locName": "Bassano", "obsDt": "2015-05-10", "howMany": 2, "lat": 50.59626, "lng": -112.370224, "obsValid": true, "obsReviewed": false, "locationPrivate": true, "subId": "S23521152"}
{"speciesCode": "ferhaw", "comName": "Ferruginous Hawk", "sciName": "Buteo regalis", "locId": "L863811", "locName": "Tyrrell Lake", "obsDt": "2015-05-11 20:00", "howMany": 2, "lat": 49.3796906, "lng": -112.2589874, "obsValid": true, "obsReviewed": false, "locationPrivate": false, "subId": "S23397457"}
{"speciesCode": "ferhaw", "comName": "Ferruginous Hawk", "sciName": "Buteo regalis", "locId": "L3490610", "locName": "St. Louis Lakes", "obsDt": "2015-05-12 16:50", "howMany": 1, "lat": 51.644308, "lng": -111.967653, "obsValid": true, "obsReviewed": false, "locationPrivate": true, "subId": "S23426576"}
{"speciesCode": "ferhaw", "comName": "Ferruginous Hawk", "sciName": "Buteo regalis", "locId": "L3479818", "locName": "Cowley to 22 back roads", "obsDt": "2015-05-14 16:11", "howMany": 2, "lat": 49.7031048, "lng": -114.0912151, "obsValid": true, "obsReviewed": false, "locationPrivate": true, "subId": "S23446060"}
{"speciesCode": "ferhaw", "comName": "Ferruginous Hawk", "sciName": "Buteo regalis", "locId": "L3646082", "locName": "BBS 04307 Second half", "obsDt": "2015-05-15 14:00", "howMany": 1, "lat": 50.863018, "lng": -111.611686, "obsValid": true, "obsReviewed": false, "locationPrivate": true, "subId": "S23463911"}
{"speciesCode": "ferhaw", "comName": "Ferruginous Hawk", "sciName": "Buteo regalis", "locId": "L785676", "locName": "Lake Newell (general location)", "obsDt": "2015-05-16 07:33", "howMany": 1, "lat": 50.4124558, "lng": -111.9458771, "obsValid": true, "obsReviewed": false, "locationPrivate": false, "subId": "S23482758"}
{"speciesCode": "ferhaw", "comName": "Ferruginous Hawk", "sciName": "Buteo regalis", "locId": "L3651405", "locName": "Majorville Medicine Wheel", "obsDt": "2015-05-17 08:23", "howMany": 2, "lat": 50.58418, "lng": -112.4091, "obsValid": true, "obsReviewed": false, "locationPrivate": true, "subId": "S23500823"}
{"speciesCode": "ferhaw", "comName": "Ferruginous Hawk", "sciName": "Buteo regalis", "locId": "L3514358", "locName": "Hanna, Alberta", "obsDt": "2015-05-18 10:00", "howMany": 2, "lat": 51.6528164, "lng": -111.9416714, "obsValid": true, "obsReviewed": false, "locationPrivate": true, "subId": "S23520859"}
{"speciesCode": "ferhaw", "comName": "Ferruginous Hawk", "sciName": "Buteo regalis", "locId": "L3667275", "locName": "Tilley, Range Road 132", "obsDt": "2015-05-23 18:54", "howMany": 1, "lat": 50.48473, "lng": -111.70314, "obsValid": true, "obsReviewed": false, "locationPrivate": true, "subId": "S23601058"}
{"speciesCode": "ferhaw", "comName": "Ferruginous Hawk", "sciName": "Buteo regalis", "locId": "L339530", "locName": "Pakowki Lake (general)", "obsDt": "2015-05-24", "lat": 49.3550975, "lng": -110.9668922, "obsValid": true, "obsReviewed": false, "locationPrivate": false, "subId": "S34962757", "howMany": 1, "noCount": 1}
{"speciesCode": "ferhaw", "comName": "Ferruginous Hawk", "sciName": "Buteo regalis", "locId": "L2248555", "locName": "AB Suffield", "obsDt": "2015-05-25 14:06", "howMany": 2, "lat": 50.59535, "lng": -111.18177, "obsValid": true, "obsReviewed": false, "locationPrivate": true, "subId": "S23750725"}
{"speciesCode": "ferhaw", "comName": "Ferruginous Hawk", "sciName": "Buteo regalis", "locId": "L3557403", "locName": "AB Pakowki", "obsDt": "2015-05-26 12:36", "howMany": 2, "lat": 49.4169, "lng": -111.14943, "obsValid": true, "obsReviewed": false, "locationPrivate": true, "subId": "S23750736"}
{"speciesCode": "ferhaw", "comName": "Ferruginous Hawk", "sciName": "Buteo regalis", "locId": "L4656137", "locName": "Tide Lake", "obsDt": "2015-05-27 15:15", "lat": 50.5635585, "lng": -111.3539886, "obsValid": true, "obsReviewed": false, "locationPrivate": false, "subId": "S23669036", "howMany": 1, "noCount": 1}
{"speciesCode": "ferhaw", "comName": "Ferruginous Hawk", "sciName": "Buteo regalis", "locId": "L3680173", "locName": "CA-AB-Lundbreck - 49.8067x-114.1145 - May 28, 2015, 3:40 PM", "obsDt": "2015-05-28 15:40", "howMany": 1, "lat": 49.806714, "lng": -114.114486, "obsValid": true, "obsReviewed": false, "locationPrivate": true, "subId": "S23680442"}
{"speciesCode": "ferhaw", "comName": "Ferruginous Hawk", "sciName": "Buteo regalis", "locId": "L3479818", "locName": "Cowley to 22 back roads", "obsDt": "2015-05-29 15:30", "howMany": 1, "lat": 49.7031048, "lng": -114.0912151, "obsValid": true, "obsReviewed": false, "locationPrivate": true, "subId": "S23699107"}
{"speciesCode": "ferhaw", "comName": "Ferruginous Hawk", "sciName": "Buteo regalis", "locId": "L3552616", "locName": "Range Rd 33A, Chappice Lake", "obsDt": "2015-05-30 11:55", "howMany": 1, "lat": 50.1644647, "lng": -110.3489192, "obsValid": true, "obsReviewed": false, "locationPrivate": true, "subId": "S23706980"}
{"speciesCode": "ferhaw", "comName": "Ferruginous Hawk", "sciName": "Buteo regalis", "locId": "L286787", "locName": "Cypress Hills Provincial Park *use more specific hotspot or personal location*", "obsDt": "2015-05-31", "howMany": 1, "lat": 49.6458468, "lng": -110.1719284, "obsValid": true, "obsReviewed": false, "locationPrivate": false, "subId": "S47240863"}
{"speciesCode": "ferhaw", "comName": "Ferruginous Hawk", "sciName": "Buteo regalis", "locId": "L760014", "locName": "Clear Lake", "obsDt": "2015-06-01 10:30", "howMany": 1, "lat": 50.1371524, "lng": -113.4088191, "obsValid": true, "obsReviewed": false, "locationPrivate": false, "subId": "S23742498"}
{"speciesCode": "ferhaw", "comName": "Ferruginous Hawk", "sciName": "Buteo regalis", "locId": "L728322", "locName": "Frank Lake *please use more specific hotspot*", "obsDt": "2015-06-03 08:45", "howMany": 1, "lat": 50.5448539, "lng": -113.7139893, "obsValid": true, "obsReviewed": true, "locationPrivate": false, "subId": "S23766789"}
{"speciesCode": "ferhaw", "comName": "Ferruginous Hawk", "sciName": "Buteo regalis", "locId": "L3701218", "locName": "Medicine Hat, 1039-1201 Police Point Drive Northeast", "obsDt": "2015-06-06 14:50", "howMany": 1, "lat": 50.04437, "lng": -110.64497, "obsValid": true, "obsReviewed": false, "locationPrivate": true, "subId": "S23803087"}
{"speciesCode": "ferhaw", "comName": "Ferruginous Hawk", "sciName": "Buteo regalis", "locId": "L760014", "locName": "Clear Lake", "obsDt": "2015-06-08 14:10", "howMany": 1, "lat": 50.1371524, "lng": -113.4088191, "obsValid": true, "obsReviewed": false, "locationPrivate": false, "subId": "S23834009"}
{"speciesCode": "ferhaw", "comName": "Ferruginous Hawk", "sciName": "Buteo regalis", "locId": "L3766625", "locName": "Alberta - Milk River: Weir bridge to Writing-on-Stone by canoe", "obsDt": "2015-06-09 17:00", "howMany": 3, "lat": 49.0951253, "lng": -111.6918397, "obsValid": true, "obsReviewed": false, "locationPrivate": true, "subId": "S24136735"}
{"speciesCode": "ferhaw", "comName": "Ferruginous Hawk", "sciName": "Buteo regalis", "locId": "L342048", "locName": "Writing-on-Stone Provincial Park", "obsDt": "2015-06-10 18:00", "howMany": 1, "lat": 49.0824889, "lng": -111.616931, "obsValid": true, "obsReviewed": false, "locationPrivate": false, "subId": "S24136774"}
{"speciesCode": "ferhaw", "comName": "Ferruginous Hawk", "sciName": "Buteo regalis", "locId": "L3762813", "locName": "Alberta - Milk River: Writing-on-Stone to Aden Bridge by canoe", "obsDt": "2015-06-12 08:00", "howMany": 5, "lat": 49.1217122, "lng": -111.4455271, "obsValid": true, "obsReviewed": false, "locationPrivate": true, "subId": "S24116105"}
{"speciesCode": "ferhaw", "comName": "Ferruginous Hawk", "sciName": "Buteo regalis", "locId": "L302973", "locName": "Onefour (Restricted Access)", "obsDt": "2015-06-13 11:30", "howMany": 2, "lat": 49.113, "lng": -110.469, "obsValid": true, "obsReviewed": false, "locationPrivate": false, "subId": "S23934025"}
{"speciesCode": "ferhaw", "comName": "Ferruginous Hawk", "sciName": "Buteo regalis", "locId": "L3762857", "locName": "Alberta - Milk River: in Pinhorn Grazing Reserve by canoe", "obsDt": "2015-06-14 08:00", "howMany": 2, "lat": 49.1242398, "lng": -110.8979273, "obsValid": true, "obsReviewed": false, "locationPrivate": true, "subId": "S24116234"}
{"speciesCode": "ferhaw", "comName": "Ferruginous Hawk", "sciName": "Buteo regalis", "locId": "L3738613", "locName": "Hwy 1 east of Suffield", "obsDt": "2015-06-18 11:30", "howMany": 1, "lat": 50.1903446, "lng": -111.073041, "obsValid": true, "obsReviewed": false, "locationPrivate": true, "subId": "S23989649"}
{"speciesCode": "ferhaw", "comName": "Ferruginous Hawk", "sciName": "Buteo regalis", "locId": "L4656137", "locName": "Tide Lake", "obsDt": "2015-06-19 19:00", "howMany": 3, "lat": 50.5635585, "lng": -111.3539886, "obsValid": true, "obsReviewed": false, "locationPrivate": false, "subId": "S23978528"}
{"speciesCode": "ferhaw", "comName": "Ferruginous Hawk", "sciName": "Buteo regalis", "locId": "L2787911", "locName": "Wildhorse", "obsDt": "2015-06-20 08:16", "howMany": 2, "lat": 49.14301, "lng": -110.252, "obsValid": true, "obsReviewed": false, "locationPrivate": true, "subId": "S23989852"}
{"speciesCode": "ferhaw", "comName": "Ferruginous Hawk", "sciName": "Buteo regalis", "locId": "L3749626", "locName": "Cardston, 5 km south", "obsDt": "2015-06-21 11:00", "howMany": 3, "lat": 49.1072403, "lng": -113.3068514, "obsValid": true, "obsReviewed": false, "locationPrivate": true, "subId": "S24047706"}
{"speciesCode": "ferhaw", "comName": "Ferruginous Hawk", "sciName": "Buteo regalis", "locId": "L3765218", "locName": "AB-3 west of Pincher Creek", "obsDt": "2015-06-26 14:59", "howMany": 1, "lat": 49.5438561, "lng": -114.0201902, "obsValid": true, "obsReviewed": false, "locationPrivate": true, "subId": "S24129205"}
{"speciesCode": "ferhaw", "comName": "Ferruginous Hawk", "sciName": "Buteo regalis", "locId": "L3772529", "locName": "e Cardston 49.0417x-113.0133 - Jun 29, 2015, 1:40 PM", "obsDt": "2015-06-29 12:40", "howMany": 1, "lat": 49.041698, "lng": -113.013313, "obsValid": true, "obsReviewed": false, "locationPrivate": true, "subId": "S24165081"}
{"speciesCode": "ferhaw", "comName": "Ferruginous Hawk", "sciName": "Buteo regalis", "locId": "L866246", "locName": "AB-CFB Suffield Excon", "obsDt": "2015-07-01 19:20", "howMany": 1, "lat": 50.4002741, "lng": -111.012699, "obsValid": true, "obsReviewed": false, "locationPrivate": true, "subId": "S24119961"}
{"speciesCode": "ferhaw", "comName": "Ferruginous Hawk", "sciName": "Buteo regalis", "locId": "L22996681", "locName": "Town Ship Road, Box Spring Road, Medicine Hat", "obsDt": "2015-07-05", "howMany": 5, "lat": 50.1355805, "lng": -110.7591981, "obsValid": true, "obsReviewed": false, "locationPrivate": true, "subId": "S130642800"}
{"speciesCode": "ferhaw", "comName": "Ferruginous Hawk", "sciName": "Buteo regalis", "locId": "L3729512", "locName": "CFB Suffield", "obsDt": "2015-07-14 18:00", "howMany": 1, "lat": 50.3030578, "lng": -110.6603909, "obsValid": true, "obsReviewed": false, "locationPrivate": true, "subId": "S24288319"}
{"speciesCode": "ferhaw", "comName": "Ferruginous Hawk", "sciName": "Buteo regalis", "locId": "L2305834", "locName": "Pakowki Lake (Highway 501)", "obsDt": "2015-07-17 10:30", "howMany": 1, "lat": 49.2111494, "lng": -111.0755968, "obsValid": true, "obsReviewed": false, "locationPrivate": false, "subId": "S53712163"}
{"speciesCode": "ferhaw", "comName": "Ferruginous Hawk", "sciName": "Buteo regalis", "locId": "L3801610", "locName": "Ralston, Township Road 150", "obsDt": "2015-07-18 20:08", "howMany": 1, "lat": 50.22273, "lng": -111.11557, "obsValid": true, "obsReviewed": false, "locationPrivate": true, "subId": "S24322015"}
{"speciesCode": "ferhaw", "comName": "Ferruginous Hawk", "sciName": "Buteo regalis", "locId": "L2344648", "locName": "Kininvie Marsh", "obsDt": "2015-07-19 11:00", "howMany": 1, "lat": 50.3704305, "lng": -111.4861679, "obsValid": true, "obsReviewed": false, "locationPrivate": false, "subId": "S24329942"}
{"speciesCode": "ferhaw", "comName": "Ferruginous Hawk", "sciName": "Buteo regalis", "locId": "L342048", "locName": "Writing-on-Stone Provincial Park", "obsDt": "2015-07-20 15:30", "howMany": 1, "lat": 49.0824889, "lng": -111.616931, "obsValid": true, "obsReviewed": false, "locationPrivate": false, "subId": "S24336140"}
{"speciesCode": "ferhaw", "comName": "Ferruginous Hawk", "sciName": "Buteo regalis", "locId": "L1370725", "locName": "Pakowki Lake (Highway 885)", "obsDt": "2015-07-21 15:45", "howMany": 1, "lat": 49.3889099, "lng": -111.1020112, "obsValid": true, "obsReviewed": false, "locationPrivate": false, "subId": "S24342812"}
{"speciesCode": "ferhaw", "comName": "Ferruginous Hawk", "sciName": "Buteo regalis", "locId": "L3816896", "locName": "AB- Hwy 5  Cardston to Wateron NP", "obsDt": "2015-07-23 11:00", "howMany": 1, "lat": 49.1958396, "lng": -113.3952141, "obsValid": true, "obsReviewed": false, "locationPrivate": true, "subId": "S24408027"}
{"speciesCode": "ferhaw", "comName": "Ferruginous Hawk", "sciName": "Buteo regalis", "locId": "L3810623", "locName": "East of Dorothy", "obsDt": "2015-07-24 09:04", "howMany": 4, "lat": 51.2708298, "lng": -112.1171951, "obsValid": true, "obsReviewed": false, "locationPrivate": true, "subId": "S24371435"}
{"speciesCode": "ferhaw", "comName": "Ferruginous Hawk", "sciName": "Buteo regalis", "locId": "L3819540", "locName": "51.0376 X -113.2468", "obsDt": "2015-07-25 09:29", "howMany": 1, "lat": 51.03757, "lng": -113.24678, "obsValid": true, "obsReviewed": false, "locationPrivate": true, "subId": "S24427740"}
{"speciesCode": "ferhaw", "comName": "Ferruginous Hawk", "sciName": "Buteo regalis", "locId": "L3816675", "locName": "Hwy 501 - native prairie W of Milk River bridge", "obsDt": "2015-07-26 12:05", "howMany": 5, "lat": 49.0828051, "lng": -112.4860525, "obsValid": true, "obsReviewed": false, "locationPrivate": true, "subId": "S24406402"}
{"speciesCode": "ferhaw", "comName": "Ferruginous Hawk", "sciName": "Buteo regalis", "locId": "L2941360", "locName": "CA-AB-Lethbridge - Dinosaur PP", "obsDt": "2015-07-31 10:30", "howMany": 1, "lat": 50.7597532, "lng": -111.4815116, "obsValid": true, "obsReviewed": false, "locationPrivate": true, "subId": "S24488772"}
{"speciesCode": "ferhaw", "comName": "Ferruginous Hawk", "sciName": "Buteo regalis", "locId": "L6586295", "locName": "Hussar Area", "obsDt": "2015-08-03", "howMany": 1, "lat": 51.038242, "lng": -112.677836, "obsValid": true, "obsReviewed": false, "locationPrivate": true, "subId": "S46865827"}
{"speciesCode": "ferhaw", "comName": "Ferruginous Hawk", "sciName": "Buteo regalis", "locId": "L339530", "locName": "Pakowki Lake (general)", "obsDt": "2015-08-05 10:30", "howMany": 9, "lat": 49.3550975, "lng": -110.9668922, "obsValid": true, "obsReviewed": false, "locationPrivate": false, "subId": "S24535393"}
{"speciesCode": "ferhaw", "comName": "Ferruginous Hawk", "sciName": "Buteo regalis", "locId": "L4355516", "locName": "Area bounded by Oldman River, Hwy 22, Hwy 3", "obsDt": "2015-08-08 10:40", "howMany": 1, "lat": 49.6363877, "lng": -114.0859067, "obsValid": true, "obsReviewed": false, "locationPrivate": true, "subId": "S24550131"}
{"speciesCode": "ferhaw", "comName": "Ferruginous Hawk", "sciName": "Buteo regalis", "locId": "L3840746", "locName": "Cowley, Range Road 11", "obsDt": "2015-08-09 16:55", "howMany": 1, "lat": 49.47546, "lng": -114.02371, "obsValid": true, "obsReviewed": false, "locationPrivate": true, "subId": "S24565316"}
{"speciesCode": "ferhaw", "comName": "Ferruginous Hawk", "sciName": "Buteo regalis", "locId": "L13298315", "locName": "Waterton Lakes NP", "obsDt": "2015-08-10", "lat": 49.1024669, "lng": -113.9449355, "obsValid": true, "obsReviewed": false, "locationPrivate": true, "subId": "S79376123", "howMany": 1, "noCount": 1}
{"speciesCode": "ferhaw", "comName": "Ferruginous Hawk", "sciName": "Buteo regalis", "locId": "L3857649", "locName": "CA-AB-Range Road 231A - 49.0228x-112.9672", "obsDt": "2015-08-18 13:48", "howMany": 2, "lat": 49.022759, "lng": -112.967171, "obsValid": true, "obsReviewed": false, "locationPrivate": true, "subId": "S24674066"}
{"speciesCode": "ferhaw", "comName": "Ferruginous Hawk", "sciName": "Buteo regalis", "locId": "L2305834", "locName": "Pakowki Lake (Highway 501)", "obsDt": "2015-08-21 11:40", "howMany": 1, "lat": 49.2111494, "lng": -111.0755968, "obsValid": true, "obsReviewed": false, "locationPrivate": false, "subId": "S24799686"}
{"speciesCode": "ferhaw", "comName": "Ferruginous Hawk", "sciName": "Buteo regalis", "locId": "L3490810", "locName": "51.7654x-112.0717 - Mar 15, 2015, 4:17 PM", "obsDt": "2015-08-23 10:21", "howMany": 2, "lat": 51.765357, "lng": -112.071699, "obsValid": true, "obsReviewed": false, "locationPrivate": true, "subId": "S24729875"}
{"speciesCode": "ferhaw", "comName": "Ferruginous Hawk", "sciName": "Buteo regalis", "locId": "L1146986", "locName": "Frank Lake--NW lookout/blind/outflow", "obsDt": "2015-08-25 15:30", "howMany": 1, "lat": 50.5652486, "lng": -113.7179804, "obsValid": true, "obsReviewed": true, "locationPrivate": false, "subId": "S24760820"}
{"speciesCode": "ferhaw", "comName": "Ferruginous Hawk", "sciName": "Buteo regalis", "locId": "L451823", "locName": "Eagle Lake (general location)", "obsDt": "2015-08-26 10:00", "howMany": 1, "lat": 51.0006361, "lng": -113.3154893, "obsValid": true, "obsReviewed": false, "locationPrivate": false, "subId": "S24772720"}
{"speciesCode": "ferhaw", "comName": "Ferruginous Hawk", "sciName": "Buteo regalis", "locId": "L801103", "locName": "Lundbreck Falls", "obsDt": "2015-08-31", "howMany": 1, "lat": 49.5828104, "lng": -114.2080951, "obsValid": true, "obsReviewed": false, "locationPrivate": false, "subId": "S42830444"}
{"speciesCode": "ferhaw", "comName": "Ferruginous Hawk", "sciName": "Buteo regalis", "locId": "L3902702", "locName": "Shanks Lake", "obsDt": "2015-09-11 09:53", "howMany": 1, "lat": 49.0598635, "lng": -112.7175808, "obsValid": true, "obsReviewed": false, "locationPrivate": false, "subId": "S25007815"}
{"speciesCode": "ferhaw", "comName": "Ferruginous Hawk", "sciName": "Buteo regalis", "locId": "L3918565", "locName": "Queen Elizabeth Hwy (Hwy 2)", "obsDt": "2015-09-12 10:00", "howMany": 1, "lat": 52.5259437, "lng": -113.6774597, "obsValid": true, "obsReviewed": true, "locationPrivate": true, "subId": "S25101428"}
{"speciesCode": "ferhaw", "comName": "Ferruginous Hawk", "sciName": "Buteo regalis", "locId": "L287659", "locName": "Waterton Lakes National Park", "obsDt": "2015-09-16 09:07", "howMany": 1, "lat": 49.0488889, "lng": -113.9155556, "obsValid": true, "obsReviewed": false, "locationPrivate": false, "subId": "S25062475"}
{"speciesCode": "ferhaw", "comName": "Ferruginous Hawk", "sciName": "Buteo regalis", "locId": "L2351290", "locName": "TR 270 west of RR254", "obsDt": "2015-09-18 13:27", "howMany": 1, "lat": 51.2705613, "lng": -113.4879971, "obsValid": true, "obsReviewed": true, "locationPrivate": true, "subId": "S25132511"}
{"speciesCode": "ferhaw", "comName": "Ferruginous Hawk", "sciName": "Buteo regalis", "locId": "L339530", "locName": "Pakowki Lake (general)", "obsDt": "2015-09-22 11:52", "howMany": 2, "lat": 49.3550975, "lng": -110.9668922, "obsValid": true, "obsReviewed": false, "locationPrivate": false, "subId": "S25139657"}
{"speciesCode": "ferhaw", "comName": "Ferruginous Hawk", "sciName": "Buteo regalis", "locId": "L1159971", "locName": "Twin River Heritage Rangeland Natural Area (limited access)", "obsDt": "2015-09-29 10:00", "howMany": 1, "lat": 49.1567868, "lng": -112.3298836, "obsValid": true, "obsReviewed": false, "locationPrivate": false, "subId": "S25235020"}
{"speciesCode": "ferhaw", "comName": "Ferruginous Hawk", "sciName": "Buteo regalis", "locId": "L1600071", "locName": "Buffalo", "obsDt": "2015-10-02 11:00", "howMany": 1, "lat": 50.8466266, "lng": -110.6955796, "obsValid": true, "obsReviewed": false, "locationPrivate": true, "subId": "S25290374"}
{"speciesCode": "ferhaw", "comName": "Ferruginous Hawk", "sciName": "Buteo regalis", "locId": "L3970878", "locName": "LONGVIEW", "obsDt": "2015-10-03 11:10", "howMany": 1, "lat": 50.5353569, "lng": -114.2313766, "obsValid": true, "obsReviewed": true, "locationPrivate": true, "subId": "S25520213"}
{"speciesCode": "ferhaw", "comName": "Ferruginous Hawk", "sciName": "Buteo regalis", "locId": "L3983497", "locName": "Cardston to Milk River via 501", "obsDt": "2015-10-10 15:00", "howMany": 1, "lat": 49.0567009, "lng": -112.6087046, "obsValid": true, "obsReviewed": false, "locationPrivate": true, "subId": "S25651069"}
{"speciesCode": "ferhaw", "comName": "Ferruginous Hawk", "sciName": "Buteo regalis", "locId": "L4335931", "locName": "CA-Alberta-Sunnynook - 51.38x-112.044 - Mar 4, 2016 11:14 AM", "obsDt": "2016-03-04 11:14", "howMany": 1, "lat": 51.3804198, "lng": -112.0443361, "obsValid": true, "obsReviewed": true, "locationPrivate": true, "subId": "S27960953"}
{"speciesCode": "ferhaw", "comName": "Ferruginous Hawk", "sciName": "Buteo regalis", "locId": "L4344417", "locName": "Sandstone Ranch CA-AB-Range Road 220A - 49.1311x-112.8294 - Mar 6, 2016, 4:35 PM", "obsDt": "2016-03-06 16:35", "howMany": 1, "lat": 49.131063, "lng": -112.82938, "obsValid": true, "obsReviewed": true, "locationPrivate": true, "subId": "S28011430"}
{"speciesCode": "ferhaw", "comName": "Ferruginous Hawk", "sciName": "Buteo regalis", "locId": "L2682221", "locName": "Del Bonita (hamlet)", "obsDt": "2016-03-07 15:40", "howMany": 2, "lat": 49.0290376, "lng": -112.7882309, "obsValid": true, "obsReviewed": true, "locationPrivate": false, "subId": "S28063368"}
{"speciesCode": "ferhaw", "comName": "Ferruginous Hawk", "sciName": "Buteo regalis", "locId": "L2682221", "locName": "Del Bonita (hamlet)", "obsDt": "2016-03-10 14:30", "howMany": 2, "lat": 49.0290376, "lng": -112.7882309, "obsValid": true, "obsReviewed": false, "locationPrivate": false, "subId": "S28087830"}
{"speciesCode": "ferhaw", "comName": "Ferruginous Hawk", "sciName": "Buteo regalis", "locId": "L1308837", "locName": "Eagle Butte Road--near Little Plume Church", "obsDt": "2016-03-18 15:20", "howMany": 1, "lat": 49.7686919, "lng": -110.5608916, "obsValid": true, "obsReviewed": false, "locationPrivate": true, "subId": "S28413635"}
{"speciesCode": "ferhaw", "comName": "Ferruginous Hawk", "sciName": "Buteo regalis", "locId": "L4402087", "locName": "CA-AB-AB-573 - 51.4013x-112.2086 - Mar 19, 2016, 7:54 AM", "obsDt": "2016-03-19 07:55", "howMany": 1, "lat": 51.401348, "lng": -112.208604, "obsValid": true, "obsReviewed": false, "locationPrivate": true, "subId": "S28422899"}
{"speciesCode": "ferhaw", "comName": "Ferruginous Hawk", "sciName": "Buteo regalis", "locId": "L4408008", "locName": "CA-AB-13801-14159 Township Road 302 - 51.5613x-111.8751 - Mar 20, 2016, 6:10 PM", "obsDt": "2016-03-20 18:11", "howMany": 2, "lat": 51.56134, "lng": -111.875052, "obsValid": true, "obsReviewed": false, "locationPrivate": true, "subId": "S28456056"}
{"speciesCode": "ferhaw", "comName": "Ferruginous Hawk", "sciName": "Buteo regalis", "locId": "L4428392", "locName": "Little Fish Lake Prov. Park", "obsDt": "2016-03-23 16:00", "howMany": 2, "lat": 51.3916328, "lng": -112.2036803, "obsValid": true, "obsReviewed": false, "locationPrivate": true, "subId": "S28579320"}
{"speciesCode": "ferhaw", "comName": "Ferruginous Hawk", "sciName": "Buteo regalis", "locId": "L339530", "locName": "Pakowki Lake (general)", "obsDt": "2016-03-24 09:30", "howMany": 2, "lat": 49.3550975, "lng": -110.9668922, "obsValid": true, "obsReviewed": false, "locationPrivate": false, "subId": "S28532586"}
{"speciesCode": "ferhaw", "comName": "Ferruginous Hawk", "sciName": "Buteo regalis", "locId": "L4457187", "locName": "CA-AB-Bow Island to Seven Persons", "obsDt": "2016-03-27 06:45", "howMany": 1, "lat": 49.8734369, "lng": -111.1109548, "obsValid": true, "obsReviewed": false, "locationPrivate": true, "subId": "S28752772"}
{"speciesCode": "ferhaw", "comName": "Ferruginous Hawk", "sciName": "Buteo regalis", "locId": "L4897404", "locName": "Porcupine Hills, Alberta", "obsDt": "2016-03-28 15:00", "howMany": 1, "lat": 49.652877, "lng": -113.795709, "obsValid": true, "obsReviewed": false, "locationPrivate": true, "subId": "S31411382"}
{"speciesCode": "ferhaw", "comName": "Ferruginous Hawk", "sciName": "Buteo regalis", "locId": "L4457187", "locName": "CA-AB-Bow Island to Seven Persons", "obsDt": "2016-03-29 06:45", "howMany": 1, "lat": 49.8734369, "lng": -111.1109548, "obsValid": true, "obsReviewed": false, "locationPrivate": true, "subId": "S28752774"}
{"speciesCode": "ferhaw", "comName": "Ferruginous Hawk", "sciName": "Buteo regalis", "locId": "L2420018", "locName": "Kitsim Reservoir", "obsDt": "2016-03-31 14:03", "howMany": 2, "lat": 50.373133, "lng": -112.4632301, "obsValid": true, "obsReviewed": false, "locationPrivate": true, "subId": "S28666800"}
{"speciesCode": "ferhaw", "comName": "Ferruginous Hawk", "sciName": "Buteo regalis", "locId": "L339530", "locName": "Pakowki Lake (general)", "obsDt": "2016-04-02 10:00", "howMany": 3, "lat": 49.3550975, "lng": -110.9668922, "obsValid": true, "obsReviewed": false, "locationPrivate": false, "subId": "S28704145"}
{"speciesCode": "ferhaw", "comName": "Ferruginous Hawk", "sciName": "Buteo regalis", "locId": "L2207157", "locName": "purple spring (Rd 143) grazing reserve", "obsDt": "2016-04-03 11:00", "howMany": 1, "lat": 49.8249977, "lng": -111.8344688, "obsValid": true, "obsReviewed": false, "locationPrivate": true, "subId": "S28748443"}
{"speciesCode": "ferhaw", "comName": "Ferruginous Hawk", "sciName": "Buteo regalis", "locId": "L4455095", "locName": "CA-AB-Special Area No. 2 - 51.6609x-111.9761 - Apr 4, 2016, 8:42 AM", "obsDt": "2016-04-04 08:43", "howMany": 1, "lat": 51.660887, "lng": -111.97614, "obsValid": true, "obsReviewed": false, "locationPrivate": true, "subId": "S28739979"}
{"speciesCode": "ferhaw", "comName": "Ferruginous Hawk", "sciName": "Buteo regalis", "locId": "L4469022", "locName": "CA-Alberta-New Dayton - 49.41x-112.351 - Apr 9, 2016 10:43 AM", "obsDt": "2016-04-09 10:43", "howMany": 2, "lat": 49.4102383, "lng": -112.3507539, "obsValid": true, "obsReviewed": false, "locationPrivate": true, "subId": "S28830140"}
{"speciesCode": "ferhaw", "comName": "Ferruginous Hawk", "sciName": "Buteo regalis", "locId": "L2174012", "locName": "Cavan Lake", "obsDt": "2016-04-11 15:30", "howMany": 1, "lat": 49.9353119, "lng": -110.412941, "obsValid": true, "obsReviewed": false, "locationPrivate": true, "subId": "S28901410"}
{"speciesCode": "ferhaw", "comName": "Ferruginous Hawk", "sciName": "Buteo regalis", "locId": "L339530", "locName": "Pakowki Lake (general)", "obsDt": "2016-04-13 08:00", "howMany": 4, "lat": 49.3550975, "lng": -110.9668922, "obsValid": true, "obsReviewed": false, "locationPrivate": false, "subId": "S28923625"}
{"speciesCode": "ferhaw", "comName": "Ferruginous Hawk", "sciName": "Buteo regalis", "locId": "L4495950", "locName": "CA-AB-Willow Creek No. 26 - 50.1357x-113.4297 - Apr 16, 2016, 2:39 PM", "obsDt": "2016-04-16 14:27", "howMany": 1, "lat": 50.135703, "lng": -113.429683, "obsValid": true, "obsReviewed": false, "locationPrivate": true, "subId": "S28991652"}
{"speciesCode": "ferhaw", "comName": "Ferruginous Hawk", "sciName": "Buteo regalis", "locId": "L4509488", "locName": "North of Oyen", "obsDt": "2016-04-20 05:30", "howMany": 1, "lat": 51.4312044, "lng": -110.4737949, "obsValid": true, "obsReviewed": false, "locationPrivate": true, "subId": "S29090211"}
{"speciesCode": "ferhaw", "comName": "Ferruginous Hawk", "sciName": "Buteo regalis", "locId": "L864682", "locName": "Wild Horse--Range Rd 20", "obsDt": "2016-04-21 10:30", "howMany": 2, "lat": 49.045576, "lng": -110.1398277, "obsValid": true, "obsReviewed": false, "locationPrivate": false, "subId": "S29117444"}
{"speciesCode": "ferhaw", "comName": "Ferruginous Hawk", "sciName": "Buteo regalis", "locId": "L1189981", "locName": "Pakowki Lake--North Access", "obsDt": "2016-04-23 11:30", "lat": 49.3988536, "lng": -111.0279608, "obsValid": true, "obsReviewed": false, "locationPrivate": false, "subId": "S29160606", "howMany": 1, "noCount": 1}
{"speciesCode": "ferhaw", "comName": "Ferruginous Hawk", "sciName": "Buteo regalis", "locId": "L4530633", "locName": "Hwy to St. Mary reservoir", "obsDt": "2016-04-24 18:10", "howMany": 1, "lat": 49.333784, "lng": -113.076555, "obsValid": true, "obsReviewed": false, "locationPrivate": true, "subId": "S29183046"}
{"speciesCode": "ferhaw", "comName": "Ferruginous Hawk", "sciName": "Buteo regalis", "locId": "L4487234", "locName": "Bow Island (town)", "obsDt": "2016-04-25 05:30", "howMany": 1, "lat": 49.8705134, "lng": -111.3794495, "obsValid": true, "obsReviewed": false, "locationPrivate": false, "subId": "S29195181"}
{"speciesCode": "ferhaw", "comName": "Ferruginous Hawk", "sciName": "Buteo regalis", "locId": "L4487234", "locName": "Bow Island (town)", "obsDt": "2016-04-26 05:30", "howMany": 1, "lat": 49.8705134, "lng": -111.3794495, "obsValid": true, "obsReviewed": false, "locationPrivate": false, "subId": "S29247605"}
{"speciesCode": "ferhaw", "comName": "Ferruginous Hawk", "sciName": "Buteo regalis", "locId": "L4488264", "locName": "Sharp Hills Area", "obsDt": "2016-04-29 05:00", "howMany": 1, "lat": 51.6781315, "lng": -110.6663561, "obsValid": true, "obsReviewed": false, "locationPrivate": true, "subId": "S29279895"}
{"speciesCode": "ferhaw", "comName": "Ferruginous Hawk", "sciName": "Buteo regalis", "locId": "L4547856", "locName": "CA-Alberta-Youngstown - 51.505x-111.107 - Apr 30, 2016 8:21 AM", "obsDt": "2016-04-30 07:21", "howMany": 1, "lat": 51.5047135, "lng": -111.1067717, "obsValid": true, "obsReviewed": false, "locationPrivate": true, "subId": "S29301610"}
{"speciesCode": "ferhaw", "comName": "Ferruginous Hawk", "sciName": "Buteo regalis", "locId": "L4554584", "locName": "CA-Alberta-Coronation - 52.085x-111.512 - May 1, 2016 6:28 PM", "obsDt": "2016-05-01 18:15", "howMany": 1, "lat": 52.0847647, "lng": -111.5124679, "obsValid": true, "obsReviewed": true, "locationPrivate": true, "subId": "S29355659"}
{"speciesCode": "ferhaw", "comName": "Ferruginous Hawk", "sciName": "Buteo regalis", "locId": "L4557768", "locName": "CA-AB-AB-3 - 49.5627x-113.7280 - May 2, 2016, 19:28", "obsDt": "2016-05-02 19:29", "howMany": 2, "lat": 49.5627, "lng": -113.728026, "obsValid": true, "obsReviewed": false, "locationPrivate": true, "subId": "S29368216"}
{"speciesCode": "ferhaw", "comName": "Ferruginous Hawk", "sciName": "Buteo regalis", "locId": "L4578787", "locName": "Along Hwy 3", "obsDt": "2016-05-04 18:00", "howMany": 1, "lat": 49.5858769, "lng": -114.1312673, "obsValid": true, "obsReviewed": false, "locationPrivate": true, "subId": "S29515621"}
{"speciesCode": "ferhaw", "comName": "Ferruginous Hawk", "sciName": "Buteo regalis", "locId": "L4565252", "locName": "CA-AB-Range Road 145 - 51.5959x-111.9505 - May 5, 2016, 2:32 PM", "obsDt": "2016-05-05 14:33", "howMany": 1, "lat": 51.595903, "lng": -111.950479, "obsValid": true, "obsReviewed": false, "locationPrivate": true, "subId": "S29424101"}
{"speciesCode": "ferhaw", "comName": "Ferruginous Hawk", "sciName": "Buteo regalis", "locId": "L339530", "locName": "Pakowki Lake (general)", "obsDt": "2016-05-07 17:42", "howMany": 1, "lat": 49.3550975, "lng": -110.9668922, "obsValid": true, "obsReviewed": false, "locationPrivate": false, "subId": "S200915010"}
{"speciesCode": "ferhaw", "comName": "Ferruginous Hawk", "sciName": "Buteo regalis", "locId": "L2481667", "locName": "Purple Springs", "obsDt": "2016-05-08 09:05", "howMany": 1, "lat": 49.8804267, "lng": -111.8911171, "obsValid": true, "obsReviewed": false, "locationPrivate": true, "subId": "S29488623"}
{"speciesCode": "ferhaw", "comName": "Ferruginous Hawk", "sciName": "Buteo regalis", "locId": "L1547308", "locName": "Highway 501", "obsDt": "2016-05-09 13:56", "howMany": 5, "lat": 49.2568519, "lng": -110.3459951, "obsValid": true, "obsReviewed": false, "locationPrivate": true, "subId": "S29522492"}
{"speciesCode": "ferhaw", "comName": "Ferruginous Hawk", "sciName": "Buteo regalis", "locId": "L4458743", "locName": "Monarch (hamlet)", "obsDt": "2016-05-10 13:00", "howMany": 1, "lat": 49.8044109, "lng": -113.107354, "obsValid": true, "obsReviewed": false, "locationPrivate": false, "subId": "S29548122"}
{"speciesCode": "ferhaw", "comName": "Ferruginous Hawk", "sciName": "Buteo regalis", "locId": "L4598780", "locName": "CA-Alberta-Milk River - 49.111x-112.21 - May 14, 2016 3:13 PM", "obsDt": "2016-05-14 15:13", "howMany": 1, "lat": 49.1111297, "lng": -112.2096614, "obsValid": true, "obsReviewed": false, "locationPrivate": true, "subId": "S29648866"}
{"speciesCode": "ferhaw", "comName": "Ferruginous Hawk", "sciName": "Buteo regalis", "locId": "L339530", "locName": "Pakowki Lake (general)", "obsDt": "2016-05-15 10:30", "howMany": 1, "lat": 49.3550975, "lng": -110.9668922, "obsValid": true, "obsReviewed": false, "locationPrivate": false, "subId": "S29714690"}
{"speciesCode": "ferhaw", "comName": "Ferruginous Hawk", "sciName": "Buteo regalis", "locId": "L4458732", "locName": "Cardston (town)", "obsDt": "2016-05-16 10:24", "howMany": 4, "lat": 49.198757, "lng": -113.3017659, "obsValid": true, "obsReviewed": false, "locationPrivate": false, "subId": "S29713247"}
{"speciesCode": "ferhaw", "comName": "Ferruginous Hawk", "sciName": "Buteo regalis", "locId": "L339530", "locName": "Pakowki Lake (general)", "obsDt": "2016-05-17 10:36", "lat": 49.3550975, "lng": -110.9668922, "obsValid": true, "obsReviewed": false, "locationPrivate": false, "subId": "S29738929", "howMany": 1, "noCount": 1}
{"speciesCode": "ferhaw", "comName": "Ferruginous Hawk", "sciName": "Buteo regalis", "locId": "L1302864", "locName": "Scope (Hays) Reservoir", "obsDt": "2016-05-18 09:00", "howMany": 2, "lat": 50.0612164, "lng": -111.8182468, "obsValid": true, "obsReviewed": false, "locationPrivate": false, "subId": "S29790922"}
{"speciesCode": "ferhaw", "comName": "Ferruginous Hawk", "sciName": "Buteo regalis", "locId": "L1547308", "locName": "Highway 501", "obsDt": "2016-05-19 14:10", "howMany": 1, "lat": 49.2568519, "lng": -110.3459951, "obsValid": true, "obsReviewed": false, "locationPrivate": true, "subId": "S29779392"}
{"speciesCode": "ferhaw", "comName": "Ferruginous Hawk", "sciName": "Buteo regalis", "locId": "L302973", "locName": "Onefour (Restricted Access)", "obsDt": "2016-05-20 19:02", "howMany": 1, "lat": 49.113, "lng": -110.469, "obsValid": true, "obsReviewed": false, "locationPrivate": false, "subId": "S29804672"}
{"speciesCode": "ferhaw", "comName": "Ferruginous Hawk", "sciName": "Buteo regalis", "locId": "L2474061", "locName": "Rolling Hills Sloughs", "obsDt": "2016-05-23 15:09", "howMany": 1, "lat": 50.4003117, "lng": -111.8971467, "obsValid": true, "obsReviewed": false, "locationPrivate": false, "subId": "S29866062"}
{"speciesCode": "ferhaw", "comName": "Ferruginous Hawk", "sciName": "Buteo regalis", "locId": "L864682", "locName": "Wild Horse--Range Rd 20", "obsDt": "2016-05-25 08:00", "howMany": 3, "lat": 49.045576, "lng": -110.1398277, "obsValid": true, "obsReviewed": false, "locationPrivate": false, "subId": "S72030567"}
{"speciesCode": "ferhaw", "comName": "Ferruginous Hawk", "sciName": "Buteo regalis", "locId": "L4355516", "locName": "Area bounded by Oldman River, Hwy 22, Hwy 3", "obsDt": "2016-05-26 17:40", "howMany": 2, "lat": 49.6363877, "lng": -114.0859067, "obsValid": true, "obsReviewed": false, "locationPrivate": true, "subId": "S29938257"}
{"speciesCode": "ferhaw", "comName": "Ferruginous Hawk", "sciName": "Buteo regalis", "locId": "L4657181", "locName": "Highway 41 -- Wildhorse Area to Cypress Hills", "obsDt": "2016-05-27 16:45", "howMany": 2, "lat": 49.5440355, "lng": -110.2643056, "obsValid": true, "obsReviewed": false, "locationPrivate": true, "subId": "S29990043"}
{"speciesCode": "ferhaw", "comName": "Ferruginous Hawk", "sciName": "Buteo regalis", "locId": "L4651273", "locName": "McIntyre Ranch", "obsDt": "2016-05-28 16:00", "howMany": 1, "lat": 49.2415305, "lng": -112.871089, "obsValid": true, "obsReviewed": false, "locationPrivate": true, "subId": "S29968723"}
{"speciesCode": "ferhaw", "comName": "Ferruginous Hawk", "sciName": "Buteo regalis", "locId": "L4651738", "locName": "CA-AB-Foremost - 49.4776x-111.4540 - May 29, 2016, 11:25 AM", "obsDt": "2016-05-29 11:25", "howMany": 1, "lat": 49.477555, "lng": -111.454047, "obsValid": true, "obsReviewed": false, "locationPrivate": true, "subId": "S29970862"}
{"speciesCode": "ferhaw", "comName": "Ferruginous Hawk", "sciName": "Buteo regalis", "locId": "L2565332", "locName": "Tilley 'O' Marsh", "obsDt": "2016-05-30 19:00", "howMany": 1, "lat": 50.3958253, "lng": -111.4920902, "obsValid": true, "obsReviewed": false, "locationPrivate": false, "subId": "S30039013"}
{"speciesCode": "ferhaw", "comName": "Ferruginous Hawk", "sciName": "Buteo regalis", "locId": "L990052", "locName": "Dinosaur Provincial Park", "obsDt": "2016-05-31 08:20", "howMany": 1, "lat": 50.7621353, "lng": -111.5173848, "obsValid": true, "obsReviewed": false, "locationPrivate": false, "subId": "S30037235"}
{"speciesCode": "ferhaw", "comName": "Ferruginous Hawk", "sciName": "Buteo regalis", "locId": "L339530", "locName": "Pakowki Lake (general)", "obsDt": "2016-06-01 13:19", "howMany": 7, "lat": 49.3550975, "lng": -110.9668922, "obsValid": true, "obsReviewed": false, "locationPrivate": false, "subId": "S30035826"}
{"speciesCode": "ferhaw", "comName": "Ferruginous Hawk", "sciName": "Buteo regalis", "locId": "L4666217", "locName": "CA-AB-Range Road 145A - 51.0332x-111.9364 - Jun 2, 2016, 5:06 PM", "obsDt": "2016-06-02 17:06", "howMany": 1, "lat": 51.033243, "lng": -111.936379, "obsValid": true, "obsReviewed": false, "locationPrivate": true, "subId": "S30046484"}
{"speciesCode": "ferhaw", "comName": "Ferruginous Hawk", "sciName": "Buteo regalis", "locId": "L4673830", "locName": "Hoodoo Trail CA-Alberta-Aden - 49.083x-111.624 - Jun 5, 2016 08:49", "obsDt": "2016-06-04 18:45", "howMany": 1, "lat": 49.0825447, "lng": -111.6236103, "obsValid": true, "obsReviewed": false, "locationPrivate": true, "subId": "S30085123"}
{"speciesCode": "ferhaw", "comName": "Ferruginous Hawk", "sciName": "Buteo regalis", "locId": "L4674621", "locName": "CA-AB-5406-5430 Highway 889 - 49.4108x-110.6786 - Jun 5, 2016, 12:25 PM", "obsDt": "2016-06-05 12:25", "howMany": 2, "lat": 49.410788, "lng": -110.678591, "obsValid": true, "obsReviewed": false, "locationPrivate": true, "subId": "S30089325"}
{"speciesCode": "ferhaw", "comName": "Ferruginous Hawk", "sciName": "Buteo regalis", "locId": "L3704488", "locName": "Township Road 174", "obsDt": "2016-06-06 07:45", "howMany": 5, "lat": 50.4558847, "lng": -111.8720198, "obsValid": true, "obsReviewed": false, "locationPrivate": true, "subId": "S30111822"}
{"speciesCode": "ferhaw", "comName": "Ferruginous Hawk", "sciName": "Buteo regalis", "locId": "L864682", "locName": "Wild Horse--Range Rd 20", "obsDt": "2016-06-08 10:30", "howMany": 3, "lat": 49.045576, "lng": -110.1398277, "obsValid": true, "obsReviewed": false, "locationPrivate": false, "subId": "S30141210"}
{"speciesCode": "ferhaw", "comName": "Ferruginous Hawk", "sciName": "Buteo regalis", "locId": "L4686449", "locName": "CA-AB-AB-842 - 50.8102x-112.8651 - Jun 9, 2016, 2:56 PM", "obsDt": "2016-06-09 14:56", "howMany": 1, "lat": 50.810187, "lng": -112.865103, "obsValid": true, "obsReviewed": false, "locationPrivate": true, "subId": "S30152526"}
{"speciesCode": "ferhaw", "comName": "Ferruginous Hawk", "sciName": "Buteo regalis", "locId": "L2305834", "locName": "Pakowki Lake (Highway 501)", "obsDt": "2016-06-10 16:15", "howMany": 2, "lat": 49.2111494, "lng": -111.0755968, "obsValid": true, "obsReviewed": false, "locationPrivate": false, "subId": "S30170165"}
{"speciesCode": "ferhaw", "comName": "Ferruginous Hawk", "sciName": "Buteo regalis", "locId": "L8078776", "locName": "AB-9 on way to Hanna", "obsDt": "2016-06-11", "lat": 51.5033716, "lng": -111.1068218, "obsValid": true, "obsReviewed": false, "locationPrivate": true, "subId": "S49500988", "howMany": 1, "noCount": 1}
{"speciesCode": "ferhaw", "comName": "Ferruginous Hawk", "sciName": "Buteo regalis", "locId": "L2870107", "locName": "Tilley grazing reserve", "obsDt": "2016-06-14 18:00", "howMany": 2, "lat": 50.3680765, "lng": -111.3564348, "obsValid": true, "obsReviewed": false, "locationPrivate": true, "subId": "S30308869"}
{"speciesCode": "ferhaw", "comName": "Ferruginous Hawk", "sciName": "Buteo regalis", "locId": "L4717290", "locName": "Twp Rd 14 - Wild Horse to Onefour", "obsDt": "2016-06-15 17:15", "howMany": 3, "lat": 49.0801629, "lng": -110.4220819, "obsValid": true, "obsReviewed": false, "locationPrivate": true, "subId": "S30308245"}
{"speciesCode": "ferhaw", "comName": "Ferruginous Hawk", "sciName": "Buteo regalis", "locId": "L864682", "locName": "Wild Horse--Range Rd 20", "obsDt": "2016-06-16 07:00", "howMany": 3, "lat": 49.045576, "lng": -110.1398277, "obsValid": true, "obsReviewed": false, "locationPrivate": false, "subId": "S30268095"}
{"speciesCode": "ferhaw", "comName": "Ferruginous Hawk", "sciName": "Buteo regalis", "locId": "L4713841", "locName": "Stavely, AB", "obsDt": "2016-06-17 05:30", "lat": 50.2578792, "lng": -113.6097693, "obsValid": true, "obsReviewed": false, "locationPrivate": true, "subId": "S30290577", "howMany": 1, "noCount": 1}
{"speciesCode": "ferhaw", "comName": "Ferruginous Hawk", "sciName": "Buteo regalis", "locId": "L864682", "locName": "Wild Horse--Range Rd 20", "obsDt": "2016-06-19 08:30", "howMany": 4, "lat": 49.045576, "lng": -110.1398277, "obsValid": true, "obsReviewed": false, "locationPrivate": false, "subId": "S30357557"}
{"speciesCode": "ferhaw", "comName": "Ferruginous Hawk", "sciName": "Buteo regalis", "locId": "L302973", "locName": "Onefour (Restricted Access)", "obsDt": "2016-06-20 13:25", "howMany": 2, "lat": 49.113, "lng": -110.469, "obsValid": true, "obsReviewed": false, "locationPrivate": false, "subId": "S30362444"}
{"speciesCode": "ferhaw", "comName": "Ferruginous Hawk", "sciName": "Buteo regalis", "locId": "L4727071", "locName": "CA-AB-Township Road 250 - 51.0960x-111.0596 - Jun 23, 2016, 10:44 AM", "obsDt": "2016-06-23 10:44", "howMany": 1, "lat": 51.095979, "lng": -111.059628, "obsValid": true, "obsReviewed": false, "locationPrivate": true, "subId": "S30357125"}
{"speciesCode": "ferhaw", "comName": "Ferruginous Hawk", "sciName": "Buteo regalis", "locId": "L4129199", "locName": "CA-AB-Highway 25 - 49.9975x-112.5068 - Jan 4, 2016, 11:37 AM", "obsDt": "2016-06-25 18:28", "howMany": 1, "lat": 49.997529, "lng": -112.506845, "obsValid": true, "obsReviewed": false, "locationPrivate": true, "subId": "S30391747"}
{"speciesCode": "ferhaw", "comName": "Ferruginous Hawk", "sciName": "Buteo regalis", "locId": "L4739208", "locName": "CA-AB-16329-16355 Highway 36 - 50.3956x-112.0172 - Jun 26, 2016, 6:53 PM", "obsDt": "2016-06-26 18:53", "howMany": 1, "lat": 50.395645, "lng": -112.017241, "obsValid": true, "obsReviewed": false, "locationPrivate": true, "subId": "S30407890"}
{"speciesCode": "ferhaw", "comName": "Ferruginous Hawk", "sciName": "Buteo regalis", "locId": "L4743169", "locName": "Highway 1", "obsDt": "2016-06-27 19:30", "howMany": 1, "lat": 51.0379804, "lng": -113.7649727, "obsValid": true, "obsReviewed": true, "locationPrivate": true, "subId": "S30426401"}
{"speciesCode": "ferhaw", "comName": "Ferruginous Hawk", "sciName": "Buteo regalis", "locId": "L3691851", "locName": "McCown's corner", "obsDt": "2016-06-28 18:27", "howMany": 1, "lat": 50.368186, "lng": -111.3575077, "obsValid": true, "obsReviewed": false, "locationPrivate": true, "subId": "S30438115"}
{"speciesCode": "ferhaw", "comName": "Ferruginous Hawk", "sciName": "Buteo regalis", "locId": "L4747342", "locName": "Highway 9", "obsDt": "2016-06-29 09:30", "howMany": 1, "lat": 51.4698445, "lng": -110.982927, "obsValid": true, "obsReviewed": false, "locationPrivate": true, "subId": "S30461361"}
{"speciesCode": "ferhaw", "comName": "Ferruginous Hawk", "sciName": "Buteo regalis", "locId": "L4780935", "locName": "Comt\u00e9 des Cypr\u00e8s, r\u00e9serve naturelle de Onefour Heritage Rangeland", "obsDt": "2016-06-30 18:00", "howMany": 1, "lat": 49.1521276, "lng": -110.2716637, "obsValid": true, "obsReviewed": false, "locationPrivate": true, "subId": "S30657127"}
{"speciesCode": "ferhaw", "comName": "Ferruginous Hawk", "sciName": "Buteo regalis", "locId": "L4752560", "locName": "49.5841x-114.1216 - Jul 1, 2016, 7:37 PM", "obsDt": "2016-07-01 19:37", "howMany": 1, "lat": 49.584127, "lng": -114.121597, "obsValid": true, "obsReviewed": false, "locationPrivate": true, "subId": "S30489721"}
{"speciesCode": "ferhaw", "comName": "Ferruginous Hawk", "sciName": "Buteo regalis", "locId": "L990052", "locName": "Dinosaur Provincial Park", "obsDt": "2016-07-02 10:00", "howMany": 1, "lat": 50.7621353, "lng": -111.5173848, "obsValid": true, "obsReviewed": false, "locationPrivate": false, "subId": "S31088021"}
{"speciesCode": "ferhaw", "comName": "Ferruginous Hawk", "sciName": "Buteo regalis", "locId": "L4757906", "locName": "CA-AB-11203-11209 Township Road 164 - 50.3683x-111.4306 - Jul 3, 2016, 3:03 PM", "obsDt": "2016-07-03 15:03", "howMany": 2, "lat": 50.368344, "lng": -111.430624, "obsValid": true, "obsReviewed": false, "locationPrivate": true, "subId": "S30514730"}
{"speciesCode": "ferhaw", "comName": "Ferruginous Hawk", "sciName": "Buteo regalis", "locId": "L864682", "locName": "Wild Horse--Range Rd 20", "obsDt": "2016-07-04 16:30", "howMany": 5, "lat": 49.045576, "lng": -110.1398277, "obsValid": true, "obsReviewed": false, "locationPrivate": false, "subId": "S126332391"}
{"speciesCode": "ferhaw", "comName": "Ferruginous Hawk", "sciName": "Buteo regalis", "locId": "L4773025", "locName": "Ca - Ab - Med Hat - Twp Rd 164 (RR105)", "obsDt": "2016-07-05 09:30", "howMany": 1, "lat": 50.3686113, "lng": -111.3790512, "obsValid": true, "obsReviewed": false, "locationPrivate": true, "subId": "S30614071"}
{"speciesCode": "ferhaw", "comName": "Ferruginous Hawk", "sciName": "Buteo regalis", "locId": "L2386564", "locName": "Manyberries", "obsDt": "2016-07-06 16:00", "lat": 49.38808, "lng": -110.66571, "obsValid": true, "obsReviewed": false, "locationPrivate": true, "subId": "S30606810", "howMany": 1, "noCount": 1}
{"speciesCode": "ferhaw", "comName": "Ferruginous Hawk", "sciName": "Buteo regalis", "locId": "L1547965", "locName": "Little Fish Lake Provincial Park", "obsDt": "2016-07-11 12:45", "howMany": 1, "lat": 51.3691699, "lng": -112.1980946, "obsValid": true, "obsReviewed": false, "locationPrivate": false, "subId": "S63487475"}
{"speciesCode": "ferhaw", "comName": "Ferruginous Hawk", "sciName": "Buteo regalis", "locId": "L4787111", "locName": "Range Rd 92, Etzikom, AB T0K 0W0, Canada", "obsDt": "2016-07-13 11:50", "howMany": 1, "lat": 49.4780135, "lng": -111.1269733, "obsValid": true, "obsReviewed": false, "locationPrivate": true, "subId": "S30688899"}
{"speciesCode": "ferhaw", "comName": "Ferruginous Hawk", "sciName": "Buteo regalis", "locId": "L4797177", "locName": "RR 114", "obsDt": "2016-07-14 16:00", "howMany": 1, "lat": 50.3063169, "lng": -111.47082, "obsValid": true, "obsReviewed": false, "locationPrivate": true, "subId": "S30741758"}
{"speciesCode": "ferhaw", "comName": "Ferruginous Hawk", "sciName": "Buteo regalis", "locId": "L4791744", "locName": "near Glenwood", "obsDt": "2016-07-15 19:00", "howMany": 3, "lat": 49.4717496, "lng": -113.4935331, "obsValid": true, "obsReviewed": false, "locationPrivate": true, "subId": "S30712560"}
{"speciesCode": "ferhaw", "comName": "Ferruginous Hawk", "sciName": "Buteo regalis", "locId": "L4797887", "locName": "CA-AB-2332-2396 Range Road 151 - 49.1441x-111.8984 - Jul 18, 2016, 11:45 AM", "obsDt": "2016-07-18 11:45", "lat": 49.144138, "lng": -111.898353, "obsValid": true, "obsReviewed": false, "locationPrivate": true, "subId": "S30745588", "howMany": 1, "noCount": 1}
{"speciesCode": "ferhaw", "comName": "Ferruginous Hawk", "sciName": "Buteo regalis", "locId": "L2844004", "locName": "Glenbow Ranch Provincial Park", "obsDt": "2016-07-21 12:30", "howMany": 1, "lat": 51.1686108, "lng": -114.3929154, "obsValid": true, "obsReviewed": true, "locationPrivate": false, "subId": "S30806034"}
{"speciesCode": "ferhaw", "comName": "Ferruginous Hawk", "sciName": "Buteo regalis", "locId": "L4851156", "locName": "AB- RR 105 and TR 164", "obsDt": "2016-07-22 13:10", "howMany": 1, "lat": 50.3682398, "lng": -111.3560954, "obsValid": true, "obsReviewed": false, "locationPrivate": true, "subId": "S31060426"}
{"speciesCode": "ferhaw", "comName": "Ferruginous Hawk", "sciName": "Buteo regalis", "locId": "L4817331", "locName": "Nanton Ab., Range Road 265 - TWP 162 36506  50.34x-113.554 - Jul 23, 2016 6:05 PM", "obsDt": "2016-07-24 07:59", "howMany": 2, "lat": 50.3395673, "lng": -113.5540709, "obsValid": true, "obsReviewed": false, "locationPrivate": true, "subId": "S30857277"}
{"speciesCode": "ferhaw", "comName": "Ferruginous Hawk", "sciName": "Buteo regalis", "locId": "L4832320", "locName": "Waterton Lakes National Park , Bellevue Hill", "obsDt": "2016-07-29 12:00", "howMany": 1, "lat": 49.1193323, "lng": -113.9164209, "obsValid": true, "obsReviewed": false, "locationPrivate": true, "subId": "S30943272"}
{"speciesCode": "ferhaw", "comName": "Ferruginous Hawk", "sciName": "Buteo regalis", "locId": "L4830694", "locName": "HWY 887 near Peigan Creek", "obsDt": "2016-07-31 09:57", "howMany": 1, "lat": 49.52884, "lng": -110.81746, "obsValid": true, "obsReviewed": false, "locationPrivate": true, "subId": "S30932245"}
{"speciesCode": "ferhaw", "comName": "Ferruginous Hawk", "sciName": "Buteo regalis", "locId": "L2526480", "locName": "Tilley 'B' Reservoir", "obsDt": "2016-08-01 09:00", "howMany": 1, "lat": 50.5433266, "lng": -111.6406631, "obsValid": true, "obsReviewed": false, "locationPrivate": false, "subId": "S83358238"}
{"speciesCode": "ferhaw", "comName": "Ferruginous Hawk", "sciName": "Buteo regalis", "locId": "L14025151", "locName": "Highway 501 in Rangeland", "obsDt": "2016-08-06 10:00", "howMany": 1, "lat": 49.2496891, "lng": -110.3197679, "obsValid": true, "obsReviewed": false, "locationPrivate": true, "subId": "S83360544"}
{"speciesCode": "ferhaw", "comName": "Ferruginous Hawk", "sciName": "Buteo regalis", "locId": "L1189981", "locName": "Pakowki Lake--North Access", "obsDt": "2016-08-10 11:00", "howMany": 1, "lat": 49.3988536, "lng": -111.0279608, "obsValid": true, "obsReviewed": false, "locationPrivate": false, "subId": "S31054697"}
{"speciesCode": "ferhaw", "comName": "Ferruginous Hawk", "sciName": "Buteo regalis", "locId": "L371909", "locName": "Head-Smashed-In Buffalo Jump  PHS", "obsDt": "2016-08-12", "howMany": 1, "lat": 49.7056101, "lng": -113.6537361, "obsValid": true, "obsReviewed": false, "locationPrivate": false, "subId": "S182592167"}
{"speciesCode": "ferhaw", "comName": "Ferruginous Hawk", "sciName": "Buteo regalis", "locId": "L3444215", "locName": "Williams Coulee Road", "obsDt": "2016-08-17 13:24", "howMany": 1, "lat": 50.3592066, "lng": -113.9886475, "obsValid": true, "obsReviewed": false, "locationPrivate": false, "subId": "S31141076"}
{"speciesCode": "ferhaw", "comName": "Ferruginous Hawk", "sciName": "Buteo regalis", "locId": "L1370725", "locName": "Pakowki Lake (Highway 885)", "obsDt": "2016-08-24 12:27", "howMany": 1, "lat": 49.3889099, "lng": -111.1020112, "obsValid": true, "obsReviewed": false, "locationPrivate": false, "subId": "S31229714"}
{"speciesCode": "ferhaw", "comName": "Ferruginous Hawk", "sciName": "Buteo regalis", "locId": "L3141151", "locName": "TRd 244 east of Rge Rd 262", "obsDt": "2016-08-26 09:00", "howMany": 1, "lat": 51.0664637, "lng": -113.4965286, "obsValid": true, "obsReviewed": false, "locationPrivate": true, "subId": "S31272787"}
{"speciesCode": "ferhaw", "comName": "Ferruginous Hawk", "sciName": "Buteo regalis", "locId": "L4891314", "locName": "CA-AB-Lethbridge-3915 Whoop Up Dr W - 49.6847x-112.8697", "obsDt": "2016-08-31 13:18", "howMany": 1, "lat": 49.684735, "lng": -112.869701, "obsValid": true, "obsReviewed": false, "locationPrivate": true, "subId": "S31346838"}
{"speciesCode": "ferhaw", "comName": "Ferruginous Hawk", "sciName": "Buteo regalis", "locId": "L4994321", "locName": "AB - Hwy 41 from Elkwater, S to Hwy 501, E to SK border", "obsDt": "2016-09-04 12:50", "howMany": 4, "lat": 49.6105987, "lng": -110.2512789, "obsValid": true, "obsReviewed": false, "locationPrivate": true, "subId": "S32078793"}
{"speciesCode": "ferhaw", "comName": "Ferruginous Hawk", "sciName": "Buteo regalis", "locId": "L4995525", "locName": "AB - S of Manyberries, Hwy 501", "obsDt": "2016-09-05 15:26", "howMany": 3, "lat": 49.2613074, "lng": -110.7067823, "obsValid": true, "obsReviewed": false, "locationPrivate": true, "subId": "S32086676"}
{"speciesCode": "ferhaw", "comName": "Ferruginous Hawk", "sciName": "Buteo regalis", "locId": "L1626047", "locName": "Cypress Hills PP--Graburn Road", "obsDt": "2016-09-17 09:40", "howMany": 1, "lat": 49.6184748, "lng": -110.2287604, "obsValid": true, "obsReviewed": false, "locationPrivate": false, "subId": "S71363725"}
{"speciesCode": "ferhaw", "comName": "Ferruginous Hawk", "sciName": "Buteo regalis", "locId": "L339530", "locName": "Pakowki Lake (general)", "obsDt": "2016-09-18 10:53", "howMany": 1, "lat": 49.3550975, "lng": -110.9668922, "obsValid": true, "obsReviewed": false, "locationPrivate": false, "subId": "S31676302"}
{"speciesCode": "ferhaw", "comName": "Ferruginous Hawk", "sciName": "Buteo regalis", "locId": "L4973969", "locName": "Black Diamond to Leighton Art Centre", "obsDt": "2016-10-07 14:36", "howMany": 1, "lat": 50.8196285, "lng": -114.2097616, "obsValid": true, "obsReviewed": true, "locationPrivate": true, "subId": "S31937019"}
{"speciesCode": "ferhaw", "comName": "Ferruginous Hawk", "sciName": "Buteo regalis", "locId": "L4372509", "locName": "Vicky's Ridge", "obsDt": "2016-10-25 13:14", "howMany": 1, "lat": 49.464385, "lng": -114.252476, "obsValid": true, "obsReviewed": true, "locationPrivate": true, "subId": "S32230790"}
{"speciesCode": "ferhaw", "comName": "Ferruginous Hawk", "sciName": "Buteo regalis", "locId": "L5045926", "locName": "Twin River Prov. Grazing Reserve", "obsDt": "2016-10-29 12:38", "howMany": 1, "lat": 49.0864871, "lng": -112.4767345, "obsValid": true, "obsReviewed": true, "locationPrivate": true, "subId": "S32285731"}
{"speciesCode": "ferhaw", "comName": "Ferruginous Hawk", "sciName": "Buteo regalis", "locId": "L5562112", "locName": "CA-Alberta-Spring Coulee - 49.255x-112.852 - Mar 11, 2017 10:12 AM", "obsDt": "2017-03-11 10:10", "howMany": 1, "lat": 49.2548782, "lng": -112.8517344, "obsValid": true, "obsReviewed": false, "locationPrivate": true, "subId": "S35105132"}
{"speciesCode": "ferhaw", "comName": "Ferruginous Hawk", "sciName": "Buteo regalis", "locId": "L3279996", "locName": "Calgary Count Circle - SE of Longview", "obsDt": "2017-03-16 14:45", "howMany": 1, "lat": 50.47671, "lng": -114.20164, "obsValid": true, "obsReviewed": true, "locationPrivate": true, "subId": "S35219369"}
{"speciesCode": "ferhaw", "comName": "Ferruginous Hawk", "sciName": "Buteo regalis", "locId": "L5593050", "locName": "Pekisko", "obsDt": "2017-03-19 14:30", "howMany": 2, "lat": 50.4348362, "lng": -114.1592762, "obsValid": true, "obsReviewed": true, "locationPrivate": true, "subId": "S35292446"}
{"speciesCode": "ferhaw", "comName": "Ferruginous Hawk", "sciName": "Buteo regalis", "locId": "L3500270", "locName": "Milk River Ridge Reservoir (general location)", "obsDt": "2017-03-22 13:00", "howMany": 1, "lat": 49.3756672, "lng": -112.5863028, "obsValid": true, "obsReviewed": false, "locationPrivate": false, "subId": "S35364298"}
{"speciesCode": "ferhaw", "comName": "Ferruginous Hawk", "sciName": "Buteo regalis", "locId": "L679073", "locName": "Eagle Butte Road", "obsDt": "2017-03-23 08:00", "howMany": 1, "lat": 49.5964701, "lng": -110.5993652, "obsValid": true, "obsReviewed": false, "locationPrivate": true, "subId": "S35381222"}
{"speciesCode": "ferhaw", "comName": "Ferruginous Hawk", "sciName": "Buteo regalis", "locId": "L863811", "locName": "Tyrrell Lake", "obsDt": "2017-03-24 10:20", "howMany": 1, "lat": 49.3796906, "lng": -112.2589874, "obsValid": true, "obsReviewed": false, "locationPrivate": false, "subId": "S35398490"}
{"speciesCode": "ferhaw", "comName": "Ferruginous Hawk", "sciName": "Buteo regalis", "locId": "L760014", "locName": "Clear Lake", "obsDt": "2017-03-25 18:30", "howMany": 3, "lat": 50.1371524, "lng": -113.4088191, "obsValid": true, "obsReviewed": false, "locationPrivate": false, "subId": "S35433450"}
{"speciesCode": "ferhaw", "comName": "Ferruginous Hawk", "sciName": "Buteo regalis", "locId": "L5722201", "locName": "CA-AB-Medicine Hat-Wild Horse-Range Rd 23A and Township Rd 12", "obsDt": "2017-03-28 10:26", "howMany": 3, "lat": 49.0281062, "lng": -110.2180394, "obsValid": true, "obsReviewed": false, "locationPrivate": true, "subId": "S36108169"}
{"speciesCode": "ferhaw", "comName": "Ferruginous Hawk", "sciName": "Buteo regalis", "locId": "L4642348", "locName": "CA-ALBERTA-CHAIN Lakes", "obsDt": "2017-03-29 14:00", "howMany": 1, "lat": 49.8934077, "lng": -114.1422425, "obsValid": true, "obsReviewed": true, "locationPrivate": true, "subId": "S35551895"}
{"speciesCode": "ferhaw", "comName": "Ferruginous Hawk", "sciName": "Buteo regalis", "locId": "L5634118", "locName": "Cowley", "obsDt": "2017-03-30 17:00", "howMany": 1, "lat": 49.5689353, "lng": -114.0741863, "obsValid": true, "obsReviewed": false, "locationPrivate": true, "subId": "S35548537"}
{"speciesCode": "ferhaw", "comName": "Ferruginous Hawk", "sciName": "Buteo regalis", "locId": "L5637163", "locName": "Stavely General", "obsDt": "2017-03-31 10:00", "howMany": 4, "lat": 50.1644463, "lng": -113.6361408, "obsValid": true, "obsReviewed": false, "locationPrivate": true, "subId": "S35592409"}
{"speciesCode": "ferhaw", "comName": "Ferruginous Hawk", "sciName": "Buteo regalis", "locId": "L5654550", "locName": "49.6970x-110.5406 - Apr 4, 2017, 1:54 PM", "obsDt": "2017-04-04 13:54", "howMany": 2, "lat": 49.696979, "lng": -110.540604, "obsValid": true, "obsReviewed": false, "locationPrivate": true, "subId": "S35697601"}
{"speciesCode": "ferhaw", "comName": "Ferruginous Hawk", "sciName": "Buteo regalis", "locId": "L760014", "locName": "Clear Lake", "obsDt": "2017-04-06 12:00", "howMany": 1, "lat": 50.1371524, "lng": -113.4088191, "obsValid": true, "obsReviewed": false, "locationPrivate": false, "subId": "S35760360"}
{"speciesCode": "ferhaw", "comName": "Ferruginous Hawk", "sciName": "Buteo regalis", "locId": "L760014", "locName": "Clear Lake", "obsDt": "2017-04-08 13:11", "howMany": 1, "lat": 50.1371524, "lng": -113.4088191, "obsValid": true, "obsReviewed": false, "locationPrivate": false, "subId": "S35803548"}
{"speciesCode": "ferhaw", "comName": "Ferruginous Hawk", "sciName": "Buteo regalis", "locId": "L4751684", "locName": "Sandstone Ranch (NCC)", "obsDt": "2017-04-09 10:00", "howMany": 2, "lat": 49.0934879, "lng": -112.8732718, "obsValid": true, "obsReviewed": false, "locationPrivate": false, "subId": "S54031420"}
{"speciesCode": "ferhaw", "comName": "Ferruginous Hawk", "sciName": "Buteo regalis", "locId": "L5683826", "locName": "CA-Alberta-Jenner - 50.719x-111.127 - Apr 11, 2017 4:21 PM", "obsDt": "2017-04-11 16:21", "howMany": 1, "lat": 50.7185297, "lng": -111.1266657, "obsValid": true, "obsReviewed": false, "locationPrivate": true, "subId": "S35883325"}
{"speciesCode": "ferhaw", "comName": "Ferruginous Hawk", "sciName": "Buteo regalis", "locId": "L5686933", "locName": "CA-Alberta-Jenner - 50.733x-111.034 - Apr 12, 2017 7:36 AM", "obsDt": "2017-04-12 07:36", "howMany": 2, "lat": 50.7331804, "lng": -111.0336059, "obsValid": true, "obsReviewed": false, "locationPrivate": true, "subId": "S35902876"}
{"speciesCode": "ferhaw", "comName": "Ferruginous Hawk", "sciName": "Buteo regalis", "locId": "L5697959", "locName": "CA-AB-TC-1 W - 49.9792x-110.4031 - Apr 14, 2017, 6:41 PM", "obsDt": "2017-04-14 18:41", "howMany": 1, "lat": 49.979179, "lng": -110.403064, "obsValid": true, "obsReviewed": false, "locationPrivate": true, "subId": "S35960736"}
{"speciesCode": "ferhaw", "comName": "Ferruginous Hawk", "sciName": "Buteo regalis", "locId": "L5703925", "locName": "Hwy 800/801", "obsDt": "2017-04-15 17:35", "howMany": 4, "lat": 49.344324, "lng": -113.582632, "obsValid": true, "obsReviewed": false, "locationPrivate": true, "subId": "S36000733"}
{"speciesCode": "ferhaw", "comName": "Ferruginous Hawk", "sciName": "Buteo regalis", "locId": "L5707841", "locName": "Ensign CA-AB-179201-179699 Range Road 260 - 50.4865x-113.4378 - Apr 16, 2017, 2:05 PM", "obsDt": "2017-04-16 14:05", "howMany": 1, "lat": 50.486534, "lng": -113.437833, "obsValid": true, "obsReviewed": false, "locationPrivate": true, "subId": "S36022749"}
{"speciesCode": "ferhaw", "comName": "Ferruginous Hawk", "sciName": "Buteo regalis", "locId": "L5714464", "locName": "Etzikom Area", "obsDt": "2017-04-17 20:00", "howMany": 1, "lat": 49.460669, "lng": -111.1493576, "obsValid": true, "obsReviewed": false, "locationPrivate": true, "subId": "S36060754"}
{"speciesCode": "ferhaw", "comName": "Ferruginous Hawk", "sciName": "Buteo regalis", "locId": "L4487244", "locName": "Redcliff (town)", "obsDt": "2017-04-18 14:09", "howMany": 1, "lat": 50.0771546, "lng": -110.7893313, "obsValid": true, "obsReviewed": false, "locationPrivate": false, "subId": "S36074813"}
{"speciesCode": "ferhaw", "comName": "Ferruginous Hawk", "sciName": "Buteo regalis", "locId": "L5714478", "locName": "Alberta, Hwy 1 West of Redcliff", "obsDt": "2017-04-19 14:30", "howMany": 1, "lat": 50.2106595, "lng": -111.1429258, "obsValid": true, "obsReviewed": false, "locationPrivate": true, "subId": "S36107232"}
{"speciesCode": "ferhaw", "comName": "Ferruginous Hawk", "sciName": "Buteo regalis", "locId": "L5730046", "locName": "CA-Alberta-Purple Springs - 49.844x-111.996 - Apr 21, 2017 5:45 PM", "obsDt": "2017-04-21 17:45", "howMany": 1, "lat": 49.8441426, "lng": -111.9962753, "obsValid": true, "obsReviewed": false, "locationPrivate": true, "subId": "S36153584"}
{"speciesCode": "ferhaw", "comName": "Ferruginous Hawk", "sciName": "Buteo regalis", "locId": "L302973", "locName": "Onefour (Restricted Access)", "obsDt": "2017-04-22 12:35", "howMany": 1, "lat": 49.113, "lng": -110.469, "obsValid": true, "obsReviewed": false, "locationPrivate": false, "subId": "S36177848"}
{"speciesCode": "ferhaw", "comName": "Ferruginous Hawk", "sciName": "Buteo regalis", "locId": "L5756266", "locName": "CA-AB-Cowboy Trail - 49.7988x-114.1512 - Apr 27, 2017, 10:07 PM", "obsDt": "2017-04-25 14:50", "howMany": 2, "lat": 49.798771, "lng": -114.151246, "obsValid": true, "obsReviewed": false, "locationPrivate": true, "subId": "S36324820"}
{"speciesCode": "ferhaw", "comName": "Ferruginous Hawk", "sciName": "Buteo regalis", "locId": "L5768254", "locName": "Clear lake, Alberta", "obsDt": "2017-04-26 11:50", "howMany": 2, "lat": 50.164439, "lng": -113.4315634, "obsValid": true, "obsReviewed": false, "locationPrivate": true, "subId": "S36430280"}
{"speciesCode": "ferhaw", "comName": "Ferruginous Hawk", "sciName": "Buteo regalis", "locId": "L990052", "locName": "Dinosaur Provincial Park", "obsDt": "2017-04-27 15:00", "howMany": 1, "lat": 50.7621353, "lng": -111.5173848, "obsValid": true, "obsReviewed": false, "locationPrivate": false, "subId": "S36374848"}
{"speciesCode": "ferhaw", "comName": "Ferruginous Hawk", "sciName": "Buteo regalis", "locId": "L2586491", "locName": "Irricana Sloughs--Railway Slough", "obsDt": "2017-04-28", "howMany": 1, "lat": 51.2706955, "lng": -113.4978461, "obsValid": true, "obsReviewed": true, "locationPrivate": false, "subId": "S157380325"}
{"speciesCode": "ferhaw", "comName": "Ferruginous Hawk", "sciName": "Buteo regalis", "locId": "L4457187", "locName": "CA-AB-Bow Island to Seven Persons", "obsDt": "2017-04-29 06:45", "howMany": 2, "lat": 49.8734369, "lng": -111.1109548, "obsValid": true, "obsReviewed": false, "locationPrivate": true, "subId": "S36412171"}
{"speciesCode": "ferhaw", "comName": "Ferruginous Hawk", "sciName": "Buteo regalis", "locId": "L1146986", "locName": "Frank Lake--NW lookout/blind/outflow", "obsDt": "2017-04-30 09:45", "howMany": 2, "lat": 50.5652486, "lng": -113.7179804, "obsValid": true, "obsReviewed": true, "locationPrivate": false, "subId": "S36455535"}
{"speciesCode": "ferhaw", "comName": "Ferruginous Hawk", "sciName": "Buteo regalis", "locId": "L5772166", "locName": "CA-AB-16301-16365 Range Road 22 - 50.3687x-110.1879 - May 1, 2017, 11:08 AM", "obsDt": "2017-05-02 07:00", "howMany": 2, "lat": 50.368695, "lng": -110.187921, "obsValid": true, "obsReviewed": false, "locationPrivate": true, "subId": "S36550671"}
{"speciesCode": "ferhaw", "comName": "Ferruginous Hawk", "sciName": "Buteo regalis", "locId": "L863811", "locName": "Tyrrell Lake", "obsDt": "2017-05-03 10:25", "howMany": 1, "lat": 49.3796906, "lng": -112.2589874, "obsValid": true, "obsReviewed": false, "locationPrivate": false, "subId": "S36519075"}
{"speciesCode": "ferhaw", "comName": "Ferruginous Hawk", "sciName": "Buteo regalis", "locId": "L5791138", "locName": "Bodo", "obsDt": "2017-05-05 18:00", "howMany": 3, "lat": 52.1520227, "lng": -110.0925028, "obsValid": true, "obsReviewed": true, "locationPrivate": true, "subId": "S36578804"}
{"speciesCode": "ferhaw", "comName": "Ferruginous Hawk", "sciName": "Buteo regalis", "locId": "L5791138", "locName": "Bodo", "obsDt": "2017-05-06 19:02", "howMany": 1, "lat": 52.1520227, "lng": -110.0925028, "obsValid": true, "obsReviewed": true, "locationPrivate": true, "subId": "S36607119"}
{"speciesCode": "ferhaw", "comName": "Ferruginous Hawk", "sciName": "Buteo regalis", "locId": "L5801483", "locName": "CA-Alberta-Cowley - 49.573x-114.069 - May 7, 2017 7:47 PM", "obsDt": "2017-05-07 19:47", "howMany": 1, "lat": 49.5731852, "lng": -114.0691242, "obsValid": true, "obsReviewed": false, "locationPrivate": true, "subId": "S36641052"}
{"speciesCode": "ferhaw", "comName": "Ferruginous Hawk", "sciName": "Buteo regalis", "locId": "L5804685", "locName": "CA-AB-AB-785 - 49.5548x-113.9086 - May 8, 2017, 3:45 PM", "obsDt": "2017-05-08 15:45", "howMany": 1, "lat": 49.554771, "lng": -113.908596, "obsValid": true, "obsReviewed": false, "locationPrivate": true, "subId": "S36662589"}
{"speciesCode": "ferhaw", "comName": "Ferruginous Hawk", "sciName": "Buteo regalis", "locId": "L5812116", "locName": "Les and fays", "obsDt": "2017-05-09 14:00", "howMany": 2, "lat": 49.182715, "lng": -111.441817, "obsValid": true, "obsReviewed": false, "locationPrivate": true, "subId": "S36713362"}
{"speciesCode": "ferhaw", "comName": "Ferruginous Hawk", "sciName": "Buteo regalis", "locId": "L863811", "locName": "Tyrrell Lake", "obsDt": "2017-05-11 13:30", "howMany": 1, "lat": 49.3796906, "lng": -112.2589874, "obsValid": true, "obsReviewed": false, "locationPrivate": false, "subId": "S36744593"}
{"speciesCode": "ferhaw", "comName": "Ferruginous Hawk", "sciName": "Buteo regalis", "locId": "L4616800", "locName": "Lonesome Lake", "obsDt": "2017-05-12 16:15", "howMany": 1, "lat": 50.3683502, "lng": -112.2872686, "obsValid": true, "obsReviewed": false, "locationPrivate": false, "subId": "S36778923"}
{"speciesCode": "ferhaw", "comName": "Ferruginous Hawk", "sciName": "Buteo regalis", "locId": "L5829649", "locName": "Twp Rd 183", "obsDt": "2017-05-13 16:11", "howMany": 1, "lat": 50.5281313, "lng": -114.1345433, "obsValid": true, "obsReviewed": true, "locationPrivate": true, "subId": "S36812773"}
{"speciesCode": "ferhaw", "comName": "Ferruginous Hawk", "sciName": "Buteo regalis", "locId": "L5842019", "locName": "CA-AB-Longview SE", "obsDt": "2017-05-14 11:45", "howMany": 1, "lat": 50.5280846, "lng": -114.1284432, "obsValid": true, "obsReviewed": true, "locationPrivate": true, "subId": "S36886165"}
{"speciesCode": "ferhaw", "comName": "Ferruginous Hawk", "sciName": "Buteo regalis", "locId": "L3535730", "locName": "Cessford", "obsDt": "2017-05-19 20:13", "howMany": 1, "lat": 51.0081384, "lng": -111.5630078, "obsValid": true, "obsReviewed": false, "locationPrivate": true, "subId": "S36998960"}
{"speciesCode": "ferhaw", "comName": "Ferruginous Hawk", "sciName": "Buteo regalis", "locId": "L988020", "locName": "Crawling Valley Reservoir", "obsDt": "2017-05-20 19:30", "howMany": 2, "lat": 50.8717069, "lng": -112.3767705, "obsValid": true, "obsReviewed": false, "locationPrivate": false, "subId": "S37104935"}
{"speciesCode": "ferhaw", "comName": "Ferruginous Hawk", "sciName": "Buteo regalis", "locId": "L988020", "locName": "Crawling Valley Reservoir", "obsDt": "2017-05-21 16:25", "howMany": 1, "lat": 50.8717069, "lng": -112.3767705, "obsValid": true, "obsReviewed": false, "locationPrivate": false, "subId": "S37057231"}
{"speciesCode": "ferhaw", "comName": "Ferruginous Hawk", "sciName": "Buteo regalis", "locId": "L4508599", "locName": "South Johnson Reservoir Sloughs", "obsDt": "2017-05-22 18:35", "howMany": 1, "lat": 50.3709369, "lng": -111.8451226, "obsValid": true, "obsReviewed": false, "locationPrivate": false, "subId": "S37083223"}
{"speciesCode": "ferhaw", "comName": "Ferruginous Hawk", "sciName": "Buteo regalis", "locId": "L5877079", "locName": "CA-AB-16495-16583 Range Road 114 - 50.3878x-111.4709 - May 23, 2017, 2:37 PM", "obsDt": "2017-05-23 14:37", "howMany": 1, "lat": 50.387779, "lng": -111.470892, "obsValid": true, "obsReviewed": false, "locationPrivate": true, "subId": "S37096740"}
{"speciesCode": "ferhaw", "comName": "Ferruginous Hawk", "sciName": "Buteo regalis", "locId": "L339530", "locName": "Pakowki Lake (general)", "obsDt": "2017-05-24 08:00", "howMany": 4, "lat": 49.3550975, "lng": -110.9668922, "obsValid": true, "obsReviewed": false, "locationPrivate": false, "subId": "S38256971"}
{"speciesCode": "ferhaw", "comName": "Ferruginous Hawk", "sciName": "Buteo regalis", "locId": "L2223418", "locName": "the gap", "obsDt": "2017-05-25 13:28", "howMany": 1, "lat": 49.8652914, "lng": -114.3657875, "obsValid": true, "obsReviewed": true, "locationPrivate": true, "subId": "S37144414"}
{"speciesCode": "ferhaw", "comName": "Ferruginous Hawk", "sciName": "Buteo regalis", "locId": "L4458713", "locName": "Milk River (town)", "obsDt": "2017-05-27 14:30", "howMany": 1, "lat": 49.151825, "lng": -112.0866354, "obsValid": true, "obsReviewed": false, "locationPrivate": false, "subId": "S72320578"}
{"speciesCode": "ferhaw", "comName": "Ferruginous Hawk", "sciName": "Buteo regalis", "locId": "L1189981", "locName": "Pakowki Lake--North Access", "obsDt": "2017-05-28 12:30", "howMany": 1, "lat": 49.3988536, "lng": -111.0279608, "obsValid": true, "obsReviewed": false, "locationPrivate": false, "subId": "S37263588"}
{"speciesCode": "ferhaw", "comName": "Ferruginous Hawk", "sciName": "Buteo regalis", "locId": "L2252555", "locName": "Cessford Area", "obsDt": "2017-05-29 09:00", "howMany": 2, "lat": 51.007498, "lng": -111.562646, "obsValid": true, "obsReviewed": false, "locationPrivate": true, "subId": "S121849043"}
{"speciesCode": "ferhaw", "comName": "Ferruginous Hawk", "sciName": "Buteo regalis", "locId": "L3647779", "locName": "BBS 04508 First half", "obsDt": "2017-05-30 10:20", "howMany": 3, "lat": 50.834103, "lng": -112.324387, "obsValid": true, "obsReviewed": false, "locationPrivate": true, "subId": "S37278468"}
{"speciesCode": "ferhaw", "comName": "Ferruginous Hawk", "sciName": "Buteo regalis", "locId": "L864682", "locName": "Wild Horse--Range Rd 20", "obsDt": "2017-05-31 18:00", "howMany": 5, "lat": 49.045576, "lng": -110.1398277, "obsValid": true, "obsReviewed": false, "locationPrivate": false, "subId": "S37337462"}
{"speciesCode": "ferhaw", "comName": "Ferruginous Hawk", "sciName": "Buteo regalis", "locId": "L5917991", "locName": "CA-Alberta-Fort MacLeod - 49.578x-113.074 - Jun 1, 2017 12:09 PM", "obsDt": "2017-06-01 12:09", "howMany": 1, "lat": 49.5779836, "lng": -113.0735878, "obsValid": true, "obsReviewed": false, "locationPrivate": true, "subId": "S37313014"}
{"speciesCode": "ferhaw", "comName": "Ferruginous Hawk", "sciName": "Buteo regalis", "locId": "L5772166", "locName": "CA-AB-16301-16365 Range Road 22 - 50.3687x-110.1879 - May 1, 2017, 11:08 AM", "obsDt": "2017-06-02 09:00", "howMany": 1, "lat": 50.368695, "lng": -110.187921, "obsValid": true, "obsReviewed": false, "locationPrivate": true, "subId": "S37333107"}
{"speciesCode": "ferhaw", "comName": "Ferruginous Hawk", "sciName": "Buteo regalis", "locId": "L1189981", "locName": "Pakowki Lake--North Access", "obsDt": "2017-06-03 14:52", "howMany": 2, "lat": 49.3988536, "lng": -111.0279608, "obsValid": true, "obsReviewed": false, "locationPrivate": false, "subId": "S37363101"}
{"speciesCode": "ferhaw", "comName": "Ferruginous Hawk", "sciName": "Buteo regalis", "locId": "L5930834", "locName": "Grid Roads near Pakowki Lake", "obsDt": "2017-06-04 05:23", "howMany": 2, "lat": 49.290169, "lng": -111.078435, "obsValid": true, "obsReviewed": false, "locationPrivate": true, "subId": "S37373847"}
{"speciesCode": "ferhaw", "comName": "Ferruginous Hawk", "sciName": "Buteo regalis", "locId": "L5940960", "locName": "855", "obsDt": "2017-06-05 12:30", "howMany": 4, "lat": 51.8445277, "lng": -112.1317005, "obsValid": true, "obsReviewed": false, "locationPrivate": true, "subId": "S37425074"}
{"speciesCode": "ferhaw", "comName": "Ferruginous Hawk", "sciName": "Buteo regalis", "locId": "L4751684", "locName": "Sandstone Ranch (NCC)", "obsDt": "2017-06-06 10:50", "howMany": 1, "lat": 49.0934879, "lng": -112.8732718, "obsValid": true, "obsReviewed": false, "locationPrivate": false, "subId": "S37432695"}
{"speciesCode": "ferhaw", "comName": "Ferruginous Hawk", "sciName": "Buteo regalis", "locId": "L2386564", "locName": "Manyberries", "obsDt": "2017-06-07 16:28", "howMany": 5, "lat": 49.38808, "lng": -110.66571, "obsValid": true, "obsReviewed": false, "locationPrivate": true, "subId": "S37463143"}
{"speciesCode": "ferhaw", "comName": "Ferruginous Hawk", "sciName": "Buteo regalis", "locId": "L5959175", "locName": "McCown Corner", "obsDt": "2017-06-08 13:58", "howMany": 6, "lat": 50.3969743, "lng": -111.3559628, "obsValid": true, "obsReviewed": false, "locationPrivate": true, "subId": "S37492808"}
{"speciesCode": "ferhaw", "comName": "Ferruginous Hawk", "sciName": "Buteo regalis", "locId": "L5954544", "locName": "CA-AB-23374-23398 Highway 876 - 50.9941x-111.5632 - Jun 9, 2017, 8:31 PM", "obsDt": "2017-06-09 20:31", "howMany": 1, "lat": 50.994075, "lng": -111.563197, "obsValid": true, "obsReviewed": false, "locationPrivate": true, "subId": "S37499176"}
{"speciesCode": "ferhaw", "comName": "Ferruginous Hawk", "sciName": "Buteo regalis", "locId": "L5966634", "locName": "Thelma BBS South", "obsDt": "2017-06-10 12:20", "howMany": 2, "lat": 49.5781335, "lng": -110.2306225, "obsValid": true, "obsReviewed": false, "locationPrivate": true, "subId": "S37552796"}
{"speciesCode": "ferhaw", "comName": "Ferruginous Hawk", "sciName": "Buteo regalis", "locId": "L302973", "locName": "Onefour (Restricted Access)", "obsDt": "2017-06-11 12:30", "howMany": 1, "lat": 49.113, "lng": -110.469, "obsValid": true, "obsReviewed": false, "locationPrivate": false, "subId": "S37536929"}
{"speciesCode": "ferhaw", "comName": "Ferruginous Hawk", "sciName": "Buteo regalis", "locId": "L5972351", "locName": "Bull Trail North of Cypress Hills PP", "obsDt": "2017-06-12 09:12", "howMany": 1, "lat": 49.7301662, "lng": -110.2369773, "obsValid": true, "obsReviewed": false, "locationPrivate": true, "subId": "S37578648"}
{"speciesCode": "ferhaw", "comName": "Ferruginous Hawk", "sciName": "Buteo regalis", "locId": "L5972677", "locName": "CA-Alberta-Finnegan - 51.125x-111.87 - Jun 13, 2017 8:40 PM", "obsDt": "2017-06-13 20:41", "howMany": 1, "lat": 51.1251532, "lng": -111.8698214, "obsValid": true, "obsReviewed": false, "locationPrivate": true, "subId": "S37580370"}
{"speciesCode": "ferhaw", "comName": "Ferruginous Hawk", "sciName": "Buteo regalis", "locId": "L7131305", "locName": "Milk River,", "obsDt": "2017-06-14 06:00", "howMany": 2, "lat": 49.1446757, "lng": -112.0812321, "obsValid": true, "obsReviewed": false, "locationPrivate": true, "subId": "S44022095"}
{"speciesCode": "ferhaw", "comName": "Ferruginous Hawk", "sciName": "Buteo regalis", "locId": "L1159971", "locName": "Twin River Heritage Rangeland Natural Area (limited access)", "obsDt": "2017-06-15 20:15", "howMany": 1, "lat": 49.1567868, "lng": -112.3298836, "obsValid": true, "obsReviewed": false, "locationPrivate": false, "subId": "S49374363"}
{"speciesCode": "ferhaw", "comName": "Ferruginous Hawk", "sciName": "Buteo regalis", "locId": "L5985563", "locName": "CA-AB-18301-18349 Highway 526 (50.1645,-112.3960)", "obsDt": "2017-06-16 17:34", "howMany": 1, "lat": 50.164457, "lng": -112.395991, "obsValid": true, "obsReviewed": false, "locationPrivate": true, "subId": "S37641882"}
{"speciesCode": "ferhaw", "comName": "Ferruginous Hawk", "sciName": "Buteo regalis", "locId": "L5714478", "locName": "Alberta, Hwy 1 West of Redcliff", "obsDt": "2017-06-17 18:43", "howMany": 1, "lat": 50.2106595, "lng": -111.1429258, "obsValid": true, "obsReviewed": false, "locationPrivate": true, "subId": "S37654380"}
{"speciesCode": "ferhaw", "comName": "Ferruginous Hawk", "sciName": "Buteo regalis", "locId": "L6029094", "locName": "HWY 884/Township Rd 172/Range Roag 105 Driving loop.", "obsDt": "2017-06-18 17:00", "howMany": 1, "lat": 50.4247483, "lng": -111.247859, "obsValid": true, "obsReviewed": false, "locationPrivate": true, "subId": "S37849276"}
{"speciesCode": "ferhaw", "comName": "Ferruginous Hawk", "sciName": "Buteo regalis", "locId": "L3691851", "locName": "McCown's corner", "obsDt": "2017-06-20 09:57", "howMany": 4, "lat": 50.368186, "lng": -111.3575077, "obsValid": true, "obsReviewed": false, "locationPrivate": true, "subId": "S37705748"}
{"speciesCode": "ferhaw", "comName": "Ferruginous Hawk", "sciName": "Buteo regalis", "locId": "L6003850", "locName": "Cypress Hills Provincial Park Alberta", "obsDt": "2017-06-21 17:47", "howMany": 1, "lat": 49.674229, "lng": -110.285292, "obsValid": true, "obsReviewed": false, "locationPrivate": true, "subId": "S37732057"}
{"speciesCode": "ferhaw", "comName": "Ferruginous Hawk", "sciName": "Buteo regalis", "locId": "L6014576", "locName": "CA-AB-12462-12480 Highway 561 - 51.0087x-111.6418 - Jun 24, 2017, 6:18 PM", "obsDt": "2017-06-24 18:18", "howMany": 1, "lat": 51.008678, "lng": -111.641848, "obsValid": true, "obsReviewed": false, "locationPrivate": true, "subId": "S37781250"}
{"speciesCode": "ferhaw", "comName": "Ferruginous Hawk", "sciName": "Buteo regalis", "locId": "L6018519", "locName": "CA-Alberta-Hussar - 51.096x-112.698 - Jun 25, 2017 3:50 PM", "obsDt": "2017-06-25 09:09", "howMany": 1, "lat": 51.0960643, "lng": -112.697823, "obsValid": true, "obsReviewed": false, "locationPrivate": true, "subId": "S37798441"}
{"speciesCode": "ferhaw", "comName": "Ferruginous Hawk", "sciName": "Buteo regalis", "locId": "L6027650", "locName": "CA-AB-Vulcan County - 50.4847x-112.5711 - Jun 27, 2017, 7:23 PM", "obsDt": "2017-06-27 19:23", "howMany": 1, "lat": 50.484691, "lng": -112.571113, "obsValid": true, "obsReviewed": false, "locationPrivate": true, "subId": "S37841328"}
{"speciesCode": "ferhaw", "comName": "Ferruginous Hawk", "sciName": "Buteo regalis", "locId": "L6030376", "locName": "CA-Alberta-Irvine - 49.863x-110.262 - Jun 28, 2017 16:32", "obsDt": "2017-06-28 16:27", "howMany": 1, "lat": 49.8632217, "lng": -110.2619601, "obsValid": true, "obsReviewed": false, "locationPrivate": true, "subId": "S37855666"}
{"speciesCode": "ferhaw", "comName": "Ferruginous Hawk", "sciName": "Buteo regalis", "locId": "L4713305", "locName": "Outpost Lake Access Road", "obsDt": "2017-06-29 13:05", "howMany": 2, "lat": 49.0850743, "lng": -113.3985186, "obsValid": true, "obsReviewed": false, "locationPrivate": true, "subId": "S212828288"}
{"speciesCode": "ferhaw", "comName": "Ferruginous Hawk", "sciName": "Buteo regalis", "locId": "L4791744", "locName": "near Glenwood", "obsDt": "2017-06-30 10:45", "howMany": 1, "lat": 49.4717496, "lng": -113.4935331, "obsValid": true, "obsReviewed": false, "locationPrivate": true, "subId": "S80238314"}
{"speciesCode": "ferhaw", "comName": "Ferruginous Hawk", "sciName": "Buteo regalis", "locId": "L2874692", "locName": "Pollockville", "obsDt": "2017-07-01 13:51", "howMany": 4, "lat": 50.8631777, "lng": -111.4727783, "obsValid": true, "obsReviewed": false, "locationPrivate": true, "subId": "S37912713"}
{"speciesCode": "ferhaw", "comName": "Ferruginous Hawk", "sciName": "Buteo regalis", "locId": "L342048", "locName": "Writing-on-Stone Provincial Park", "obsDt": "2017-07-02 13:00", "howMany": 2, "lat": 49.0824889, "lng": -111.616931, "obsValid": true, "obsReviewed": false, "locationPrivate": false, "subId": "S38062911"}
{"speciesCode": "ferhaw", "comName": "Ferruginous Hawk", "sciName": "Buteo regalis", "locId": "L6054932", "locName": "CA-AB-10560-10590 Township Road 164 (50.3683,-111.3761)", "obsDt": "2017-07-03 12:35", "howMany": 1, "lat": 50.368281, "lng": -111.376079, "obsValid": true, "obsReviewed": false, "locationPrivate": true, "subId": "S37975776"}
{"speciesCode": "ferhaw", "comName": "Ferruginous Hawk", "sciName": "Buteo regalis", "locId": "L339530", "locName": "Pakowki Lake (general)", "obsDt": "2017-07-05 14:20", "howMany": 10, "lat": 49.3550975, "lng": -110.9668922, "obsValid": true, "obsReviewed": false, "locationPrivate": false, "subId": "S38042699"}
{"speciesCode": "ferhaw", "comName": "Ferruginous Hawk", "sciName": "Buteo regalis", "locId": "L6110927", "locName": "Hwy 884, 25 km north of Hwy 1", "obsDt": "2017-07-06 10:00", "howMany": 1, "lat": 50.4480338, "lng": -111.1743656, "obsValid": true, "obsReviewed": false, "locationPrivate": true, "subId": "S38257501"}
{"speciesCode": "ferhaw", "comName": "Ferruginous Hawk", "sciName": "Buteo regalis", "locId": "L6077798", "locName": "CA-AB-17037-17049 Highway 36 - 50.4470x-112.0186 - Jul 11, 2017, 5:29 PM", "obsDt": "2017-07-11 17:29", "howMany": 1, "lat": 50.446977, "lng": -112.018622, "obsValid": true, "obsReviewed": false, "locationPrivate": true, "subId": "S38090496"}
{"speciesCode": "ferhaw", "comName": "Ferruginous Hawk", "sciName": "Buteo regalis", "locId": "L6117728", "locName": "CA-AB-9101-9129 Township Road 150 (50.2226,-111.1487)", "obsDt": "2017-07-12 11:38", "howMany": 4, "lat": 50.222564, "lng": -111.148744, "obsValid": true, "obsReviewed": false, "locationPrivate": true, "subId": "S38289697"}
{"speciesCode": "ferhaw", "comName": "Ferruginous Hawk", "sciName": "Buteo regalis", "locId": "L6098221", "locName": "CA-AB-Cypress County - 50.1417x-110.1342 - Jul 17, 2017, 8:48 PM", "obsDt": "2017-07-17 20:48", "howMany": 1, "lat": 50.141714, "lng": -110.13423, "obsValid": true, "obsReviewed": false, "locationPrivate": true, "subId": "S38196701"}
{"speciesCode": "ferhaw", "comName": "Ferruginous Hawk", "sciName": "Buteo regalis", "locId": "L864682", "locName": "Wild Horse--Range Rd 20", "obsDt": "2017-07-18 18:00", "howMany": 4, "lat": 49.045576, "lng": -110.1398277, "obsValid": true, "obsReviewed": false, "locationPrivate": false, "subId": "S38249412"}
{"speciesCode": "ferhaw", "comName": "Ferruginous Hawk", "sciName": "Buteo regalis", "locId": "L6117644", "locName": "Medicine Hat County: Range Rd 105", "obsDt": "2017-07-19 11:42", "howMany": 1, "lat": 50.3680217, "lng": -111.3564348, "obsValid": true, "obsReviewed": false, "locationPrivate": true, "subId": "S38289441"}
{"speciesCode": "ferhaw", "comName": "Ferruginous Hawk", "sciName": "Buteo regalis", "locId": "L760014", "locName": "Clear Lake", "obsDt": "2017-07-22 07:50", "howMany": 1, "lat": 50.1371524, "lng": -113.4088191, "obsValid": true, "obsReviewed": false, "locationPrivate": false, "subId": "S38266952"}
{"speciesCode": "ferhaw", "comName": "Ferruginous Hawk", "sciName": "Buteo regalis", "locId": "L1189981", "locName": "Pakowki Lake--North Access", "obsDt": "2017-07-24 11:35", "howMany": 2, "lat": 49.3988536, "lng": -111.0279608, "obsValid": true, "obsReviewed": false, "locationPrivate": false, "subId": "S38302664"}
{"speciesCode": "ferhaw", "comName": "Ferruginous Hawk", "sciName": "Buteo regalis", "locId": "L5832135", "locName": "North Cooking Lake Natural Area", "obsDt": "2017-07-30 11:00", "howMany": 2, "lat": 53.4761705, "lng": -112.9900718, "obsValid": true, "obsReviewed": true, "locationPrivate": false, "subId": "S38578272"}
{"speciesCode": "ferhaw", "comName": "Ferruginous Hawk", "sciName": "Buteo regalis", "locId": "L785395", "locName": "Kallal Meadow", "obsDt": "2017-08-03 13:40", "howMany": 1, "lat": 53.3660211, "lng": -112.5478935, "obsValid": true, "obsReviewed": true, "locationPrivate": false, "subId": "S38466011"}
{"speciesCode": "ferhaw", "comName": "Ferruginous Hawk", "sciName": "Buteo regalis", "locId": "L4465922", "locName": "Bassano (town)", "obsDt": "2017-08-06 14:00", "howMany": 1, "lat": 50.7886606, "lng": -112.463755, "obsValid": true, "obsReviewed": false, "locationPrivate": false, "subId": "S38526534"}
{"speciesCode": "ferhaw", "comName": "Ferruginous Hawk", "sciName": "Buteo regalis", "locId": "L6163171", "locName": "Beaver Mines Area", "obsDt": "2017-08-07 14:50", "howMany": 1, "lat": 49.4558342, "lng": -114.1405078, "obsValid": true, "obsReviewed": false, "locationPrivate": true, "subId": "S38537445"}
{"speciesCode": "ferhaw", "comName": "Ferruginous Hawk", "sciName": "Buteo regalis", "locId": "L6202735", "locName": "Along Road", "obsDt": "2017-08-12 15:30", "howMany": 7, "lat": 49.2038596, "lng": -112.7780485, "obsValid": true, "obsReviewed": true, "locationPrivate": true, "subId": "S38755911"}
{"speciesCode": "ferhaw", "comName": "Ferruginous Hawk", "sciName": "Buteo regalis", "locId": "L6181584", "locName": "Hwy 25 east of Iron Springs", "obsDt": "2017-08-14 08:56", "howMany": 1, "lat": 49.9468402, "lng": -112.6153585, "obsValid": true, "obsReviewed": false, "locationPrivate": true, "subId": "S38640582"}
{"speciesCode": "ferhaw", "comName": "Ferruginous Hawk", "sciName": "Buteo regalis", "locId": "L3902702", "locName": "Shanks Lake", "obsDt": "2017-08-15 15:00", "howMany": 2, "lat": 49.0598635, "lng": -112.7175808, "obsValid": true, "obsReviewed": false, "locationPrivate": false, "subId": "S38662117"}
{"speciesCode": "ferhaw", "comName": "Ferruginous Hawk", "sciName": "Buteo regalis", "locId": "L339530", "locName": "Pakowki Lake (general)", "obsDt": "2017-08-18 09:00", "howMany": 7, "lat": 49.3550975, "lng": -110.9668922, "obsValid": true, "obsReviewed": false, "locationPrivate": false, "subId": "S38714346"}
{"speciesCode": "ferhaw", "comName": "Ferruginous Hawk", "sciName": "Buteo regalis", "locId": "L6230658", "locName": "Range Rd 221 north of TR 230", "obsDt": "2017-08-20 16:36", "howMany": 1, "lat": 50.930033, "lng": -112.9586792, "obsValid": true, "obsReviewed": false, "locationPrivate": true, "subId": "S38923079"}
{"speciesCode": "ferhaw", "comName": "Ferruginous Hawk", "sciName": "Buteo regalis", "locId": "L6216538", "locName": "Hwy 880 north of border", "obsDt": "2017-08-22 11:55", "howMany": 4, "lat": 49.078, "lng": -111.275, "obsValid": true, "obsReviewed": false, "locationPrivate": true, "subId": "S38835898"}
{"speciesCode": "ferhaw", "comName": "Ferruginous Hawk", "sciName": "Buteo regalis", "locId": "L4413347", "locName": "Lethbridge--Botterill Bottom Park", "obsDt": "2017-08-31 10:00", "howMany": 1, "lat": 49.6854357, "lng": -112.8548824, "obsValid": true, "obsReviewed": false, "locationPrivate": false, "subId": "S38989413"}
{"speciesCode": "ferhaw", "comName": "Ferruginous Hawk", "sciName": "Buteo regalis", "locId": "L6246289", "locName": "Vauxhall Lions Club Campground", "obsDt": "2017-09-02 16:30", "howMany": 1, "lat": 50.0779631, "lng": -112.0964865, "obsValid": true, "obsReviewed": false, "locationPrivate": true, "subId": "S39025184"}
{"speciesCode": "ferhaw", "comName": "Ferruginous Hawk", "sciName": "Buteo regalis", "locId": "L3810623", "locName": "East of Dorothy", "obsDt": "2017-09-04 15:28", "howMany": 1, "lat": 51.2708298, "lng": -112.1171951, "obsValid": true, "obsReviewed": false, "locationPrivate": true, "subId": "S39002978"}
{"speciesCode": "ferhaw", "comName": "Ferruginous Hawk", "sciName": "Buteo regalis", "locId": "L6246125", "locName": "CA-AB-16781-16861 Highway 884 (50.4130,-111.1730)", "obsDt": "2017-09-05 18:01", "howMany": 2, "lat": 50.413026, "lng": -111.172972, "obsValid": true, "obsReviewed": false, "locationPrivate": true, "subId": "S39023913"}
{"speciesCode": "ferhaw", "comName": "Ferruginous Hawk", "sciName": "Buteo regalis", "locId": "L5772166", "locName": "CA-AB-16301-16365 Range Road 22 - 50.3687x-110.1879 - May 1, 2017, 11:08 AM", "obsDt": "2017-09-13 09:08", "howMany": 2, "lat": 50.368695, "lng": -110.187921, "obsValid": true, "obsReviewed": false, "locationPrivate": true, "subId": "S39191434"}
{"speciesCode": "ferhaw", "comName": "Ferruginous Hawk", "sciName": "Buteo regalis", "locId": "L6272468", "locName": "Tilley to Brooks (South of Hwy 1)", "obsDt": "2017-09-15 14:56", "howMany": 1, "lat": 50.484648, "lng": -111.7060269, "obsValid": true, "obsReviewed": false, "locationPrivate": true, "subId": "S39202066"}
